[
  {
    "name": "Adana",
    "lattitude": "36.9914194",
    "longitude": "35.3308285"
  },
  {
    "name": "Adıyaman",
    "lattitude": "37.76365",
    "longitude": "38.2772592"
  },
  {
    "name": "Afyonkarahisar",
    "lattitude": "38.7568852",
    "longitude": "30.5387038"
  },
  {
    "name": "Ağrı",
    "lattitude": "39.719074",
    "longitude": "43.050591"
  },
  {
    "name": "Amasya",
    "lattitude": "40.656455",
    "longitude": "35.837347"
  },
  {
    "name": "Ankara",
    "lattitude": "39.9333635",
    "longitude": "32.8597419"
  },
  {
    "name": "Antalya",
    "lattitude": "36.8968908",
    "longitude": "30.7133233"
  },
  {
    "name": "Artvin",
    "lattitude": "41.180937",
    "longitude": "41.820819"
  },
  {
    "name": "Aydın",
    "lattitude": "37.8380162",
    "longitude": "27.8455601"
  },
  {
    "name": "Balıkesir",
    "lattitude": "39.65329759999999",
    "longitude": "27.8903423"
  },
  {
    "name": "Bilecik",
    "lattitude": "40.142573",
    "longitude": "29.97933"
  },
  {
    "name": "Bingöl",
    "lattitude": "38.885464",
    "longitude": "40.496625"
  },
  {
    "name": "Bitlis",
    "lattitude": "38.400569",
    "longitude": "42.109502"
  },
  {
    "name": "Bolu",
    "lattitude": "40.732541",
    "longitude": "31.608209"
  },
  {
    "name": "Burdur",
    "lattitude": "37.718336",
    "longitude": "30.282333"
  },
  {
    "name": "Bursa",
    "lattitude": "40.1885281",
    "longitude": "29.0609636"
  },
  {
    "name": "Çanakkale",
    "lattitude": "40.14671999999999",
    "longitude": "26.408587"
  },
  {
    "name": "Çankırı",
    "lattitude": "40.676893",
    "longitude": "33.3570865"
  },
  {
    "name": "Çorum",
    "lattitude": "40.54992560000001",
    "longitude": "34.9537242"
  },
  {
    "name": "Denizli",
    "lattitude": "37.7830159",
    "longitude": "29.0963328"
  },
  {
    "name": "Diyarbakır",
    "lattitude": "37.9249733",
    "longitude": "40.2109826"
  },
  {
    "name": "Edirne",
    "lattitude": "41.67712969999999",
    "longitude": "26.5557145"
  },
  {
    "name": "Elazığ",
    "lattitude": "38.674816",
    "longitude": "39.22251500000001"
  },
  {
    "name": "Erzincan",
    "lattitude": "39.746797",
    "longitude": "39.491124"
  },
  {
    "name": "Erzurum",
    "lattitude": "39.9054993",
    "longitude": "41.2658236"
  },
  {
    "name": "Eskişehir",
    "lattitude": "39.7667061",
    "longitude": "30.52563109999999"
  },
  {
    "name": "Gaziantep",
    "lattitude": "37.065953",
    "longitude": "37.37811"
  },
  {
    "name": "Giresun",
    "lattitude": "40.91753200000001",
    "longitude": "38.392653"
  },
  {
    "name": "Gümüşhane",
    "lattitude": "40.28036729999999",
    "longitude": "39.3143253"
  },
  {
    "name": "Hakkari",
    "lattitude": "37.577427",
    "longitude": "43.736782"
  },
  {
    "name": "Hatay",
    "lattitude": "36.2022842",
    "longitude": "36.1613221"
  },
  {
    "name": "Isparta",
    "lattitude": "37.7626487",
    "longitude": "30.55370499999999"
  },
  {
    "name": "Mersin(İçel)",
    "lattitude": "36.8121041",
    "longitude": "34.6414811"
  },
  {
    "name": "İstanbul",
    "lattitude": "41.0082376",
    "longitude": "28.9783589"
  },
  {
    "name": "İzmir",
    "lattitude": "38.423734",
    "longitude": "27.142826"
  },
  {
    "name": "Kars",
    "lattitude": "40.6013378",
    "longitude": "43.0974525"
  },
  {
    "name": "Kastamonu",
    "lattitude": "41.376625",
    "longitude": "33.776497"
  },
  {
    "name": "Kayseri",
    "lattitude": "38.720489",
    "longitude": "35.48259700000001"
  },
  {
    "name": "Kırklareli",
    "lattitude": "41.735472",
    "longitude": "27.224369"
  },
  {
    "name": "Kırşehir",
    "lattitude": "39.146078",
    "longitude": "34.1594989"
  },
  {
    "name": "Kocaeli",
    "lattitude": "40.8532704",
    "longitude": "29.8815203"
  },
  {
    "name": "Konya",
    "lattitude": "37.8746429",
    "longitude": "32.4931554"
  },
  {
    "name": "Kütahya",
    "lattitude": "39.4199547",
    "longitude": "29.985732"
  },
  {
    "name": "Malatya",
    "lattitude": "38.3553627",
    "longitude": "38.33352470000001"
  },
  {
    "name": "Manisa",
    "lattitude": "38.6140337",
    "longitude": "27.4295624"
  },
  {
    "name": "Kahramanmaraş",
    "lattitude": "37.5752755",
    "longitude": "36.9228223"
  },
  {
    "name": "Mardin",
    "lattitude": "37.312903",
    "longitude": "40.733951"
  },
  {
    "name": "Muğla",
    "lattitude": "37.215374",
    "longitude": "28.363394"
  },
  {
    "name": "Muş",
    "lattitude": "38.734561",
    "longitude": "41.491038"
  },
  {
    "name": "Nevşehir",
    "lattitude": "38.624694",
    "longitude": "34.714151"
  },
  {
    "name": "Niğde",
    "lattitude": "37.969774",
    "longitude": "34.676608"
  },
  {
    "name": "Ordu",
    "lattitude": "40.986166",
    "longitude": "37.879721"
  },
  {
    "name": "Rize",
    "lattitude": "41.025511",
    "longitude": "40.517666"
  },
  {
    "name": "Sakarya",
    "lattitude": "40.7730743",
    "longitude": "30.3948169"
  },
  {
    "name": "Samsun",
    "lattitude": "41.2797031",
    "longitude": "36.3360667"
  },
  {
    "name": "Siirt",
    "lattitude": "37.927404",
    "longitude": "41.94197800000001"
  },
  {
    "name": "Sinop",
    "lattitude": "42.02797400000001",
    "longitude": "35.151725"
  },
  {
    "name": "Sivas",
    "lattitude": "39.750545",
    "longitude": "37.0150217"
  },
  {
    "name": "Tekirdağ",
    "lattitude": "40.9780919",
    "longitude": "27.511674"
  },
  {
    "name": "Tokat",
    "lattitude": "40.3234643",
    "longitude": "36.5521928"
  },
  {
    "name": "Trabzon",
    "lattitude": "41.0026969",
    "longitude": "39.7167633"
  },
  {
    "name": "Tunceli",
    "lattitude": "39.10617",
    "longitude": "39.548259"
  },
  {
    "name": "Şanlıurfa",
    "lattitude": "37.1674039",
    "longitude": "38.7955149"
  },
  {
    "name": "Uşak",
    "lattitude": "38.6742286",
    "longitude": "29.4058825"
  },
  {
    "name": "Van",
    "lattitude": "38.5012085",
    "longitude": "43.3729793"
  },
  {
    "name": "Yozgat",
    "lattitude": "39.821049",
    "longitude": "34.808573"
  },
  {
    "name": "Zonguldak",
    "lattitude": "41.45352099999999",
    "longitude": "31.78938"
  },
  {
    "name": "Aksaray",
    "lattitude": "38.368626",
    "longitude": "34.0297"
  },
  {
    "name": "Bayburt",
    "lattitude": "40.26032",
    "longitude": "40.228048"
  },
  {
    "name": "Karaman",
    "lattitude": "37.181009",
    "longitude": "33.22224300000001"
  },
  {
    "name": "Kırıkkale",
    "lattitude": "39.8397835",
    "longitude": "33.5088782"
  },
  {
    "name": "Batman",
    "lattitude": "37.8895167",
    "longitude": "41.1292832"
  },
  {
    "name": "Şırnak",
    "lattitude": "37.518974",
    "longitude": "42.453714"
  },
  {
    "name": "Bartın",
    "lattitude": "41.637602",
    "longitude": "32.333811"
  },
  {
    "name": "Ardahan",
    "lattitude": "41.11295",
    "longitude": "42.70227999999999"
  },
  {
    "name": "Iğdır",
    "lattitude": "39.92005959999999",
    "longitude": "44.0436151"
  },
  {
    "name": "Yalova",
    "lattitude": "40.654895",
    "longitude": "29.284186"
  },
  {
    "name": "Karabük",
    "lattitude": "41.19562",
    "longitude": "32.622654"
  },
  {
    "name": "Kilis",
    "lattitude": "36.716477",
    "longitude": "37.114661"
  },
  {
    "name": "Osmaniye",
    "lattitude": "37.0746279",
    "longitude": "36.2464002"
  },
  {
    "name": "Düzce",
    "lattitude": "40.83872",
    "longitude": "31.162609"
  }
]