[
  {
    "name": "Balçova, İzmir, Türkiye",
    "lattitude": "38.3890827",
    "longitude": "27.0499859",
    "id": 1
  },
  {
    "name": "Çiğli, İzmir, Türkiye",
    "lattitude": "38.4940251",
    "longitude": "26.9616941",
    "id": 2
  },
  {
    "name": "Gaziemir, İzmir, Türkiye",
    "lattitude": "38.32515",
    "longitude": "27.12252",
    "id": 3
  },
  {
    "name": "Karşıyaka, İzmir, Türkiye",
    "lattitude": "38.463748",
    "longitude": "27.092590",
    "id": 4
  },
  {
    "name": "Konak, İzmir, Türkiye",
    "lattitude": "38.4144802",
    "longitude": "27.1441227",
    "id": 5
  },
  {
    "name": "Aliağa, İzmir, Türkiye",
    "lattitude": "38.799561",
    "longitude": "26.97074",
    "id": 6
  },
  {
    "name": "Bayındır, İzmir, Türkiye",
    "lattitude": "38.2174819",
    "longitude": "27.647949",
    "id": 7
  },
  {
    "name": "Bayraklı, İzmir, Türkiye",
    "lattitude": "38.4793887",
    "longitude": "27.1382404",
    "id": 8
  },
  {
    "name": "Bergama, İzmir, Türkiye",
    "lattitude": "39.121449",
    "longitude": "27.179913",
    "id": 9
  },
  {
    "name": "Beydağ, İzmir, Türkiye",
    "lattitude": "38.0847",
    "longitude": "28.2106",
    "id": 10
  },
  {
    "name": "Bornova, İzmir, Türkiye",
    "lattitude": "38.470982",
    "longitude": "27.21769",
    "id": 11
  },
  {
    "name": "Buca, İzmir, Türkiye",
    "lattitude": "38.3854789",
    "longitude": "27.174709",
    "id": 12
  },
  {
    "name": "Çeşme, İzmir, Türkiye",
    "lattitude": "38.324311",
    "longitude": "26.303215",
    "id": 13
  },
  {
    "name": "Dikili, İzmir, Türkiye",
    "lattitude": "39.0749",
    "longitude": "26.889199",
    "id": 14
  },
  {
    "name": "Foça, İzmir, Türkiye",
    "lattitude": "38.670378",
    "longitude": "26.757918",
    "id": 15
  },
  {
    "name": "Güzelbahçe, İzmir, Türkiye",
    "lattitude": "38.362438",
    "longitude": "26.882593",
    "id": 16
  },
  {
    "name": "Karabağlar, İzmir, Türkiye",
    "lattitude": "38.361883",
    "longitude": "27.091732",
    "id": 17
  },
  {
    "name": "Karaburun, İzmir, Türkiye",
    "lattitude": "38.6382509",
    "longitude": "26.512738",
    "id": 18
  },
  {
    "name": "Kemalpaşa, İzmir, Türkiye",
    "lattitude": "38.42749999999999",
    "longitude": "27.4188",
    "id": 19
  },
  {
    "name": "Kınık, İzmir, Türkiye",
    "lattitude": "39.0859",
    "longitude": "27.3818",
    "id": 20
  },
  {
    "name": "Kiraz, İzmir, Türkiye",
    "lattitude": "38.2302",
    "longitude": "28.2064",
    "id": 21
  },
  {
    "name": "Menderes, İzmir, Türkiye",
    "lattitude": "38.251744",
    "longitude": "27.132668",
    "id": 22
  },
  {
    "name": "Menemen, İzmir, Türkiye",
    "lattitude": "38.610366",
    "longitude": "27.069658",
    "id": 23
  },
  {
    "name": "Narlıdere, İzmir, Türkiye",
    "lattitude": "38.3962659",
    "longitude": "26.9940815",
    "id": 24
  },
  {
    "name": "Ödemiş, İzmir, Türkiye",
    "lattitude": "38.2190057",
    "longitude": "27.9717606",
    "id": 25
  },
  {
    "name": "Seferihisar, İzmir, Türkiye",
    "lattitude": "38.19515",
    "longitude": "26.834402",
    "id": 26
  },
  {
    "name": "Selçuk, İzmir, Türkiye",
    "lattitude": "37.950845",
    "longitude": "27.369954",
    "id": 27
  },
  {
    "name": "Tire, İzmir, Türkiye",
    "lattitude": "38.089478",
    "longitude": "27.731838",
    "id": 28
  },
  {
    "name": "Torbalı, İzmir, Türkiye",
    "lattitude": "38.155731",
    "longitude": "27.364494",
    "id": 29
  },
  {
    "name": "Urla, İzmir, Türkiye",
    "lattitude": "38.324972",
    "longitude": "26.76681",
    "id": 30
  },
  {
    "name": "Ahmetli, Manisa, Türkiye",
    "lattitude": "38.516381",
    "longitude": "27.937964",
    "id": 31
  },
  {
    "name": "Akhisar, Manisa, Türkiye",
    "lattitude": "38.91766399999999",
    "longitude": "27.83662",
    "id": 32
  },
  {
    "name": "Alaşehir, Manisa, Türkiye",
    "lattitude": "38.354458",
    "longitude": "28.516541",
    "id": 33
  },
  {
    "name": "Demirci, Manisa, Türkiye",
    "lattitude": "39.047336",
    "longitude": "28.658544",
    "id": 34
  },
  {
    "name": "Gölmarmara, Manisa, Türkiye",
    "lattitude": "38.713913",
    "longitude": "27.918426",
    "id": 35
  },
  {
    "name": "Gördeş, Manisa, Türkiye",
    "lattitude": "38.933029",
    "longitude": "28.288668",
    "id": 36
  },
  {
    "name": "Kırkağaç, Manisa, Türkiye",
    "lattitude": "39.105061",
    "longitude": "27.673421",
    "id": 37
  },
  {
    "name": "Köprübaşı, Manisa, Türkiye",
    "lattitude": "38.748221",
    "longitude": "28.404289",
    "id": 38
  },
  {
    "name": "Kula, Manisa, Türkiye",
    "lattitude": "38.543234",
    "longitude": "28.644585",
    "id": 39
  },
  {
    "name": "Salihli, Manisa, Türkiye",
    "lattitude": "38.487074",
    "longitude": "28.138052",
    "id": 40
  },
  {
    "name": "Sarıgöl, Manisa, Türkiye",
    "lattitude": "38.238351",
    "longitude": "28.696434",
    "id": 41
  },
  {
    "name": "Saruhanlı, Manisa, Türkiye",
    "lattitude": "38.734982",
    "longitude": "27.569818",
    "id": 42
  },
  {
    "name": "Selendi, Manisa, Türkiye",
    "lattitude": "38.743988",
    "longitude": "28.867367",
    "id": 43
  },
  {
    "name": "Soma, Manisa, Türkiye",
    "lattitude": "39.185113",
    "longitude": "27.608792",
    "id": 44
  },
  {
    "name": "Şehzadeler, Manisa, Türkiye",
    "lattitude": "38.6140337",
    "longitude": "27.4295624",
    "id": 45
  },
  {
    "name": "Turgutlu, Manisa, Türkiye",
    "lattitude": "38.500161",
    "longitude": "27.70841",
    "id": 46
  },
  {
    "name": "Yunusemre, Manisa, Türkiye",
    "lattitude": "38.6262479",
    "longitude": "27.3878497",
    "id": 47
  },
  {
    "name": "Bozdoğan, Aydın, Türkiye",
    "lattitude": "37.672873",
    "longitude": "28.310157",
    "id": 48
  },
  {
    "name": "Buharkent, Aydın, Türkiye",
    "lattitude": "37.96390299999999",
    "longitude": "28.74296",
    "id": 49
  },
  {
    "name": "Çine, Aydın, Türkiye",
    "lattitude": "37.614081",
    "longitude": "28.06114",
    "id": 50
  },
  {
    "name": "Didim, Aydın, Türkiye",
    "lattitude": "37.37609399999999",
    "longitude": "27.264729",
    "id": 51
  },
  {
    "name": "Efeler, Aydın, Türkiye",
    "lattitude": "37.8380162",
    "longitude": "27.8455601",
    "id": 52
  },
  {
    "name": "Germencik, Aydın, Türkiye",
    "lattitude": "37.872648",
    "longitude": "27.601134",
    "id": 53
  },
  {
    "name": "İncirliova, Aydın, Türkiye",
    "lattitude": "37.85378499999999",
    "longitude": "27.723424",
    "id": 54
  },
  {
    "name": "Karacasu, Aydın, Türkiye",
    "lattitude": "37.729068",
    "longitude": "28.607231",
    "id": 55
  },
  {
    "name": "Karpuzlu, Aydın, Türkiye",
    "lattitude": "37.56035",
    "longitude": "27.835809",
    "id": 56
  },
  {
    "name": "Koçarlı, Aydın, Türkiye",
    "lattitude": "37.7620671",
    "longitude": "27.7049745",
    "id": 57
  },
  {
    "name": "Köşk, Aydın, Türkiye",
    "lattitude": "37.853694",
    "longitude": "28.052133",
    "id": 58
  },
  {
    "name": "Kuşadası, Aydın, Türkiye",
    "lattitude": "37.857913",
    "longitude": "27.261015",
    "id": 59
  },
  {
    "name": "Kuyucak, Aydın, Türkiye",
    "lattitude": "37.913861",
    "longitude": "28.459786",
    "id": 60
  },
  {
    "name": "Nazilli, Aydın, Türkiye",
    "lattitude": "37.909777",
    "longitude": "28.324294",
    "id": 61
  },
  {
    "name": "Söke, Aydın, Türkiye",
    "lattitude": "37.75196100000001",
    "longitude": "27.405666",
    "id": 62
  },
  {
    "name": "Sultanhisar, Aydın, Türkiye",
    "lattitude": "37.88973300000001",
    "longitude": "28.154463",
    "id": 63
  },
  {
    "name": "Yenipazar , Aydın, Türkiye",
    "lattitude": "37.823396",
    "longitude": "28.195679",
    "id": 64
  },
  {
    "name": "Acıpayam, Denizli, Türkiye",
    "lattitude": "37.426385",
    "longitude": "29.351143",
    "id": 65
  },
  {
    "name": "Babadağ, Denizli, Türkiye",
    "lattitude": "37.810661",
    "longitude": "28.858782",
    "id": 66
  },
  {
    "name": "Baklan, Denizli, Türkiye",
    "lattitude": "37.976748",
    "longitude": "29.606909",
    "id": 67
  },
  {
    "name": "Bekilli, Denizli, Türkiye",
    "lattitude": "38.230167",
    "longitude": "29.418785",
    "id": 68
  },
  {
    "name": "Beyağaç, Denizli, Türkiye",
    "lattitude": "37.235995",
    "longitude": "28.897509",
    "id": 69
  },
  {
    "name": "Bozkurt, Denizli, Türkiye",
    "lattitude": "37.821021",
    "longitude": "29.60639",
    "id": 70
  },
  {
    "name": "Buldan, Denizli, Türkiye",
    "lattitude": "38.044206",
    "longitude": "28.834598",
    "id": 71
  },
  {
    "name": "Çal, Denizli, Türkiye",
    "lattitude": "38.083013",
    "longitude": "29.397279",
    "id": 72
  },
  {
    "name": "Çameli, Denizli, Türkiye",
    "lattitude": "37.076768",
    "longitude": "29.35148199999999",
    "id": 73
  },
  {
    "name": "Çardak, Denizli, Türkiye",
    "lattitude": "37.825035",
    "longitude": "29.668323",
    "id": 74
  },
  {
    "name": "Çivril, Denizli, Türkiye",
    "lattitude": "38.30212",
    "longitude": "29.740258",
    "id": 75
  },
  {
    "name": "Güney, Denizli, Türkiye",
    "lattitude": "38.1544809",
    "longitude": "29.064356",
    "id": 76
  },
  {
    "name": "Honaz, Denizli, Türkiye",
    "lattitude": "37.75696",
    "longitude": "29.264256",
    "id": 77
  },
  {
    "name": "Kale, Denizli, Türkiye",
    "lattitude": "37.451893",
    "longitude": "28.849892",
    "id": 78
  },
  {
    "name": "Merkezefendi, Denizli, Türkiye",
    "lattitude": "37.7835168",
    "longitude": "29.0772146",
    "id": 79
  },
  {
    "name": "Pamukkale, Denizli, Türkiye",
    "lattitude": "37.9186089",
    "longitude": "29.110307",
    "id": 80
  },
  {
    "name": "Sarayköy, Denizli, Türkiye",
    "lattitude": "37.924452",
    "longitude": "28.923078",
    "id": 81
  },
  {
    "name": "Serinhisar, Denizli, Türkiye",
    "lattitude": "37.587955",
    "longitude": "29.266039",
    "id": 82
  },
  {
    "name": "Tavas, Denizli, Türkiye",
    "lattitude": "37.573068",
    "longitude": "29.071329",
    "id": 83
  },
  {
    "name": "Altıntaş, Kütahya, Türkiye",
    "lattitude": "39.057997",
    "longitude": "30.108556",
    "id": 84
  },
  {
    "name": "Aslanapa, Kütahya, Türkiye",
    "lattitude": "39.214902",
    "longitude": "29.870345",
    "id": 85
  },
  {
    "name": "Çavdarhisar, Kütahya, Türkiye",
    "lattitude": "39.196872",
    "longitude": "29.617246",
    "id": 86
  },
  {
    "name": "Domaniç, Kütahya, Türkiye",
    "lattitude": "39.800999",
    "longitude": "29.612731",
    "id": 87
  },
  {
    "name": "Dumlupınar, Kütahya, Türkiye",
    "lattitude": "38.8552",
    "longitude": "29.9762",
    "id": 88
  },
  {
    "name": "Emet, Kütahya, Türkiye",
    "lattitude": "39.344413",
    "longitude": "29.257899",
    "id": 89
  },
  {
    "name": "Gediz, Kütahya, Türkiye",
    "lattitude": "38.990736",
    "longitude": "29.395705",
    "id": 90
  },
  {
    "name": "Pazarlar, Kütahya, Türkiye",
    "lattitude": "38.9951999",
    "longitude": "29.1239",
    "id": 91
  },
  {
    "name": "Şaphane, Kütahya, Türkiye",
    "lattitude": "39.02491",
    "longitude": "29.220065",
    "id": 92
  },
  {
    "name": "Hisarcık, Kütahya, Türkiye",
    "lattitude": "39.246528",
    "longitude": "29.235896",
    "id": 93
  },
  {
    "name": "Simav, Kütahya, Türkiye",
    "lattitude": "39.0896",
    "longitude": "28.9787",
    "id": 94
  },
  {
    "name": "Tavşanlı, Kütahya, Türkiye",
    "lattitude": "39.547",
    "longitude": "29.4914",
    "id": 95
  },
  {
    "name": "Başmakçı, Afyonkarahisar, Türkiye",
    "lattitude": "37.898784",
    "longitude": "30.009285",
    "id": 96
  },
  {
    "name": "Bayat, Afyonkarahisar, Türkiye",
    "lattitude": "38.984257",
    "longitude": "30.923901",
    "id": 97
  },
  {
    "name": "Bolvadin, Afyonkarahisar, Türkiye",
    "lattitude": "38.71259999999999",
    "longitude": "31.0484",
    "id": 98
  },
  {
    "name": "Çay, Afyonkarahisar, Türkiye",
    "lattitude": "38.5922569",
    "longitude": "31.026043",
    "id": 99
  },
  {
    "name": "Çobanlar, Afyonkarahisar, Türkiye",
    "lattitude": "38.701468",
    "longitude": "30.781546",
    "id": 100
  },
  {
    "name": "Dazkırı, Afyonkarahisar, Türkiye",
    "lattitude": "37.9199",
    "longitude": "29.8601",
    "id": 101
  },
  {
    "name": "Dinar, Afyonkarahisar, Türkiye",
    "lattitude": "38.0668999",
    "longitude": "30.1688",
    "id": 102
  },
  {
    "name": "Emirdağ, Afyonkarahisar, Türkiye",
    "lattitude": "39.0202",
    "longitude": "31.151",
    "id": 103
  },
  {
    "name": "Evciler, Afyonkarahisar, Türkiye",
    "lattitude": "38.04183099999999",
    "longitude": "29.885836",
    "id": 104
  },
  {
    "name": "Hocalar, Afyonkarahisar, Türkiye",
    "lattitude": "38.576673",
    "longitude": "29.969668",
    "id": 105
  },
  {
    "name": "İhsaniye, Afyonkarahisar, Türkiye",
    "lattitude": "39.031881",
    "longitude": "30.416788",
    "id": 106
  },
  {
    "name": "İscehisar, Afyonkarahisar, Türkiye",
    "lattitude": "38.861286",
    "longitude": "30.749196",
    "id": 107
  },
  {
    "name": "Kızılören, Afyonkarahisar, Türkiye",
    "lattitude": "38.2588",
    "longitude": "30.1524",
    "id": 108
  },
  {
    "name": "Sandıklı, Afyonkarahisar, Türkiye",
    "lattitude": "38.465179",
    "longitude": "30.272628",
    "id": 109
  },
  {
    "name": "Sinanpaşa, Afyonkarahisar, Türkiye",
    "lattitude": "38.742188",
    "longitude": "30.24481",
    "id": 110
  },
  {
    "name": "Sultandağı, Afyonkarahisar, Türkiye",
    "lattitude": "38.531637",
    "longitude": "31.229912",
    "id": 111
  },
  {
    "name": "Şuhut, Afyonkarahisar, Türkiye",
    "lattitude": "38.532897",
    "longitude": "30.544417",
    "id": 112
  },
  {
    "name": "Banaz, Uşak, Türkiye",
    "lattitude": "38.73982",
    "longitude": "29.753174",
    "id": 113
  },
  {
    "name": "Eşme, Uşak, Türkiye",
    "lattitude": "38.39988",
    "longitude": "28.971384",
    "id": 114
  },
  {
    "name": "Karahallı, Uşak, Türkiye",
    "lattitude": "38.319945",
    "longitude": "29.531498",
    "id": 115
  },
  {
    "name": "Sivaslı, Uşak, Türkiye",
    "lattitude": "38.499903",
    "longitude": "29.683864",
    "id": 116
  },
  {
    "name": "Ulubey, Uşak, Türkiye",
    "lattitude": "38.42166",
    "longitude": "29.290451",
    "id": 117
  },
  {
    "name": "Bodrum, Muğla, Türkiye",
    "lattitude": "37.034407",
    "longitude": "27.43054",
    "id": 118
  },
  {
    "name": "Dalaman, Muğla, Türkiye",
    "lattitude": "36.76662",
    "longitude": "28.799991",
    "id": 119
  },
  {
    "name": "Datça, Muğla, Türkiye",
    "lattitude": "36.726217",
    "longitude": "27.685844",
    "id": 120
  },
  {
    "name": "Fethiye, Muğla, Türkiye",
    "lattitude": "36.659246",
    "longitude": "29.126347",
    "id": 121
  },
  {
    "name": "Kavaklıdere, Muğla, Türkiye",
    "lattitude": "37.445382",
    "longitude": "28.366123",
    "id": 122
  },
  {
    "name": "Köyceğiz, Muğla, Türkiye",
    "lattitude": "36.966034",
    "longitude": "28.688593",
    "id": 123
  },
  {
    "name": "Marmaris, Muğla, Türkiye",
    "lattitude": "36.854936",
    "longitude": "28.270878",
    "id": 124
  },
  {
    "name": "Milas, Muğla, Türkiye",
    "lattitude": "37.31163799999999",
    "longitude": "27.780795",
    "id": 125
  },
  {
    "name": "Menteşe, Muğla, Türkiye",
    "lattitude": "37.4213499",
    "longitude": "28.432157",
    "id": 126
  },
  {
    "name": "Ortaca, Muğla, Türkiye",
    "lattitude": "36.838723",
    "longitude": "28.765469",
    "id": 127
  },
  {
    "name": "Seydikemer, Muğla, Türkiye",
    "lattitude": "36.6480362",
    "longitude": "29.3591524",
    "id": 128
  },
  {
    "name": "Ula, Muğla, Türkiye",
    "lattitude": "37.102153",
    "longitude": "28.417756",
    "id": 129
  },
  {
    "name": "Yatağan, Muğla, Türkiye",
    "lattitude": "37.340253",
    "longitude": "28.140032",
    "id": 130
  }
]