[
  {
    "name": "İzmir, Türkiye",
    "lattitude": "38.423734",
    "longitude": "27.142826",
    "id": 1
  },
  {
    "name": "Manisa, Türkiye",
    "lattitude": "38.6140337",
    "longitude": "27.4295624",
    "id": 2
  },
  {
    "name": "Aydın, Türkiye",
    "lattitude": "37.8380162",
    "longitude": "27.8455601",
    "id": 3
  },
  {
    "name": "Denizli, Türkiye",
    "lattitude": "37.7830159",
    "longitude": "29.0963328",
    "id": 4
  },
  {
    "name": "Kütahya, Türkiye",
    "lattitude": "39.4199547",
    "longitude": "29.985732",
    "id": 5
  },
  {
    "name": "Afyonkarahisar, Türkiye",
    "lattitude": "38.7568852",
    "longitude": "30.5387038",
    "id": 6
  },
  {
    "name": "Uşak, Türkiye",
    "lattitude": "38.6742286",
    "longitude": "29.4058825",
    "id": 7
  },
  {
    "name": "Muğla, Türkiye",
    "lattitude": "37.215374",
    "longitude": "28.363394",
    "id": 8
  }
]