{
  "_name": "TR0a_970 (970 Towns of Turkey)",
  "_comment": "Akbudak, I., Karagul, K., Gunduz, G., Tokat, S. (2016)",
  "data": [
    {
      "name": "Aladağ, Adana, Türkiye",
      "lattitude": "37.545348",
      "longitude": "35.394608",
      "id": 1
    },
    {
      "name": "Ceyhan, Adana, Türkiye",
      "lattitude": "37.028765",
      "longitude": "35.8124309",
      "id": 2
    },
    {
      "name": "Çukurova, Adana, Türkiye",
      "lattitude": "37.0989702",
      "longitude": "35.148879",
      "id": 3
    },
    {
      "name": "Feke, Adana, Türkiye",
      "lattitude": "37.814467",
      "longitude": "35.910391",
      "id": 4
    },
    {
      "name": "İmamoğlu, Adana, Türkiye",
      "lattitude": "37.257733",
      "longitude": "35.661306",
      "id": 5
    },
    {
      "name": "Karaisalı, Adana, Türkiye",
      "lattitude": "37.25735",
      "longitude": "35.058151",
      "id": 6
    },
    {
      "name": "Karataş, Adana, Türkiye",
      "lattitude": "36.566429",
      "longitude": "35.383986",
      "id": 7
    },
    {
      "name": "Kozan, Adana, Türkiye",
      "lattitude": "37.452122",
      "longitude": "35.819273",
      "id": 8
    },
    {
      "name": "Pozantı, Adana, Türkiye",
      "lattitude": "37.425584",
      "longitude": "34.873613",
      "id": 9
    },
    {
      "name": "Saimbeyli, Adana, Türkiye",
      "lattitude": "37.98609",
      "longitude": "36.089587",
      "id": 10
    },
    {
      "name": "Sarıçam, Adana, Türkiye",
      "lattitude": "37.1034441",
      "longitude": "35.5220012",
      "id": 11
    },
    {
      "name": "Seyhan, Adana, Türkiye",
      "lattitude": "36.9914194",
      "longitude": "35.3308285",
      "id": 12
    },
    {
      "name": "Tufanbeyli, Adana, Türkiye",
      "lattitude": "38.26253700000001",
      "longitude": "36.220484",
      "id": 13
    },
    {
      "name": "Yumurtalık, Adana, Türkiye",
      "lattitude": "36.768649",
      "longitude": "35.788214",
      "id": 14
    },
    {
      "name": "Yüreğir, Adana, Türkiye",
      "lattitude": "36.9914194",
      "longitude": "35.3308285",
      "id": 15
    },
    {
      "name": "Adıyaman merkez, Adıyaman, Türkiye",
      "lattitude": "37.76365",
      "longitude": "38.2772592",
      "id": 16
    },
    {
      "name": "Besni, Adıyaman, Türkiye",
      "lattitude": "37.693394",
      "longitude": "37.86090799999999",
      "id": 17
    },
    {
      "name": "Çelikhan, Adıyaman, Türkiye",
      "lattitude": "38.03307",
      "longitude": "38.237197",
      "id": 18
    },
    {
      "name": "Gerger, Adıyaman, Türkiye",
      "lattitude": "38.028856",
      "longitude": "39.0322699",
      "id": 19
    },
    {
      "name": "Gölbaşı, Adıyaman, Türkiye",
      "lattitude": "37.783409",
      "longitude": "37.641858",
      "id": 20
    },
    {
      "name": "Kahta, Adıyaman, Türkiye",
      "lattitude": "37.786899",
      "longitude": "38.619005",
      "id": 21
    },
    {
      "name": "Samsat, Adıyaman, Türkiye",
      "lattitude": "37.579209",
      "longitude": "38.482441",
      "id": 22
    },
    {
      "name": "Sincik, Adıyaman, Türkiye",
      "lattitude": "38.032169",
      "longitude": "38.631121",
      "id": 23
    },
    {
      "name": "Tut, Adıyaman, Türkiye",
      "lattitude": "37.7966",
      "longitude": "37.9151",
      "id": 24
    },
    {
      "name": "Afyonkarahisar merkez, Afyonkarahisar, Türkiye",
      "lattitude": "38.7568852",
      "longitude": "30.5387038",
      "id": 25
    },
    {
      "name": "Başmakçı, Afyonkarahisar, Türkiye",
      "lattitude": "37.898784",
      "longitude": "30.009285",
      "id": 26
    },
    {
      "name": "Bayat, Afyonkarahisar, Türkiye",
      "lattitude": "38.984257",
      "longitude": "30.923901",
      "id": 27
    },
    {
      "name": "Bolvadin, Afyonkarahisar, Türkiye",
      "lattitude": "38.71259999999999",
      "longitude": "31.0484",
      "id": 28
    },
    {
      "name": "Çay, Afyonkarahisar, Türkiye",
      "lattitude": "38.5922569",
      "longitude": "31.026043",
      "id": 29
    },
    {
      "name": "Çobanlar, Afyonkarahisar, Türkiye",
      "lattitude": "38.701468",
      "longitude": "30.781546",
      "id": 30
    },
    {
      "name": "Dazkırı, Afyonkarahisar, Türkiye",
      "lattitude": "37.9199",
      "longitude": "29.8601",
      "id": 31
    },
    {
      "name": "Dinar, Afyonkarahisar, Türkiye",
      "lattitude": "38.0668999",
      "longitude": "30.1688",
      "id": 32
    },
    {
      "name": "Emirdağ, Afyonkarahisar, Türkiye",
      "lattitude": "39.0202",
      "longitude": "31.151",
      "id": 33
    },
    {
      "name": "Evciler, Afyonkarahisar, Türkiye",
      "lattitude": "38.04183099999999",
      "longitude": "29.885836",
      "id": 34
    },
    {
      "name": "Hocalar, Afyonkarahisar, Türkiye",
      "lattitude": "38.576673",
      "longitude": "29.969668",
      "id": 35
    },
    {
      "name": "İhsaniye, Afyonkarahisar, Türkiye",
      "lattitude": "39.031881",
      "longitude": "30.416788",
      "id": 36
    },
    {
      "name": "İscehisar, Afyonkarahisar, Türkiye",
      "lattitude": "38.861286",
      "longitude": "30.749196",
      "id": 37
    },
    {
      "name": "Kızılören, Afyonkarahisar, Türkiye",
      "lattitude": "38.2588",
      "longitude": "30.1524",
      "id": 38
    },
    {
      "name": "Sandıklı, Afyonkarahisar, Türkiye",
      "lattitude": "38.465179",
      "longitude": "30.272628",
      "id": 39
    },
    {
      "name": "Sinanpaşa, Afyonkarahisar, Türkiye",
      "lattitude": "38.742188",
      "longitude": "30.24481",
      "id": 40
    },
    {
      "name": "Sultandağı, Afyonkarahisar, Türkiye",
      "lattitude": "38.531637",
      "longitude": "31.229912",
      "id": 41
    },
    {
      "name": "Şuhut, Afyonkarahisar, Türkiye",
      "lattitude": "38.532897",
      "longitude": "30.544417",
      "id": 42
    },
    {
      "name": "Ağrı merkez, Ağrı, Türkiye",
      "lattitude": "39.719074",
      "longitude": "43.050591",
      "id": 43
    },
    {
      "name": "Diyadin, Ağrı, Türkiye",
      "lattitude": "39.5401",
      "longitude": "43.6773",
      "id": 44
    },
    {
      "name": "Doğubayazıt, Ağrı, Türkiye",
      "lattitude": "39.54707399999999",
      "longitude": "44.06877799999999",
      "id": 45
    },
    {
      "name": "Eleşkirt, Ağrı, Türkiye",
      "lattitude": "39.8014",
      "longitude": "42.6768",
      "id": 46
    },
    {
      "name": "Hamur, Ağrı, Türkiye",
      "lattitude": "39.608756",
      "longitude": "42.98640899999999",
      "id": 47
    },
    {
      "name": "Patnos, Ağrı, Türkiye",
      "lattitude": "39.233578",
      "longitude": "42.86330299999999",
      "id": 48
    },
    {
      "name": "Taşlıçay, Ağrı, Türkiye",
      "lattitude": "39.63543629999999",
      "longitude": "43.4334061",
      "id": 49
    },
    {
      "name": "Tutak, Ağrı, Türkiye",
      "lattitude": "39.5422",
      "longitude": "42.7718",
      "id": 50
    },
    {
      "name": "Ağaçören, Aksaray, Türkiye",
      "lattitude": "38.868998",
      "longitude": "33.9140919",
      "id": 51
    },
    {
      "name": "Aksaray merkez, Aksaray, Türkiye",
      "lattitude": "38.368626",
      "longitude": "34.0297",
      "id": 52
    },
    {
      "name": "Eskil, Aksaray, Türkiye",
      "lattitude": "38.401758",
      "longitude": "33.412793",
      "id": 53
    },
    {
      "name": "Gülağaç, Aksaray, Türkiye",
      "lattitude": "38.394343",
      "longitude": "34.346139",
      "id": 54
    },
    {
      "name": "Güzelyurt, Aksaray, Türkiye",
      "lattitude": "38.2775279",
      "longitude": "34.372635",
      "id": 55
    },
    {
      "name": "Ortaköy, Aksaray, Türkiye",
      "lattitude": "38.7366",
      "longitude": "34.0408",
      "id": 56
    },
    {
      "name": "Sarıyahşi, Aksaray, Türkiye",
      "lattitude": "38.98491",
      "longitude": "33.844517",
      "id": 57
    },
    {
      "name": "Amasya merkez, Amasya, Türkiye",
      "lattitude": "40.656455",
      "longitude": "35.837347",
      "id": 58
    },
    {
      "name": "Göynücek, Amasya, Türkiye",
      "lattitude": "40.397399",
      "longitude": "35.524242",
      "id": 59
    },
    {
      "name": "Gümüşhacıköy, Amasya, Türkiye",
      "lattitude": "40.873622",
      "longitude": "35.2159369",
      "id": 60
    },
    {
      "name": "Hamamözü, Amasya, Türkiye",
      "lattitude": "40.782672",
      "longitude": "35.023334",
      "id": 61
    },
    {
      "name": "Merzifon, Amasya, Türkiye",
      "lattitude": "40.87477",
      "longitude": "35.461753",
      "id": 62
    },
    {
      "name": "Suluova, Amasya, Türkiye",
      "lattitude": "40.836475",
      "longitude": "35.645599",
      "id": 63
    },
    {
      "name": "Taşova, Amasya, Türkiye",
      "lattitude": "40.760551",
      "longitude": "36.322542",
      "id": 64
    },
    {
      "name": "Akyurt, Ankara, Türkiye",
      "lattitude": "40.131099",
      "longitude": "33.0826629",
      "id": 65
    },
    {
      "name": "Altındağ, Ankara, Türkiye",
      "lattitude": "40.0092683",
      "longitude": "32.9833371",
      "id": 66
    },
    {
      "name": "Ayaş, Ankara, Türkiye",
      "lattitude": "40.019427",
      "longitude": "32.3322069",
      "id": 67
    },
    {
      "name": "Bala, Ankara, Türkiye",
      "lattitude": "39.553374",
      "longitude": "33.123771",
      "id": 68
    },
    {
      "name": "Beypazarı, Ankara, Türkiye",
      "lattitude": "40.168218",
      "longitude": "31.920441",
      "id": 69
    },
    {
      "name": "Çamlıdere, Ankara, Türkiye",
      "lattitude": "40.49162",
      "longitude": "32.476536",
      "id": 70
    },
    {
      "name": "Çankaya, Ankara, Türkiye",
      "lattitude": "39.8451842",
      "longitude": "32.9212265",
      "id": 71
    },
    {
      "name": "Çubuk, Ankara, Türkiye",
      "lattitude": "40.23874",
      "longitude": "33.032668",
      "id": 72
    },
    {
      "name": "Elmadağ, Ankara, Türkiye",
      "lattitude": "39.922129",
      "longitude": "33.226266",
      "id": 73
    },
    {
      "name": "Etimesgut, Ankara, Türkiye",
      "lattitude": "39.9310354",
      "longitude": "32.650351",
      "id": 74
    },
    {
      "name": "Evren, Ankara, Türkiye",
      "lattitude": "39.020236",
      "longitude": "33.805793",
      "id": 75
    },
    {
      "name": "Gölbaşı, Ankara, Türkiye",
      "lattitude": "39.79829300000001",
      "longitude": "32.805752",
      "id": 76
    },
    {
      "name": "Güdül, Ankara, Türkiye",
      "lattitude": "40.210512",
      "longitude": "32.24553",
      "id": 77
    },
    {
      "name": "Haymana, Ankara, Türkiye",
      "lattitude": "39.434232",
      "longitude": "32.495657",
      "id": 78
    },
    {
      "name": "Kalecik, Ankara, Türkiye",
      "lattitude": "40.1065309",
      "longitude": "33.411384",
      "id": 79
    },
    {
      "name": "Kazan, Ankara, Türkiye",
      "lattitude": "40.205167",
      "longitude": "32.681182",
      "id": 80
    },
    {
      "name": "Keçiören, Ankara, Türkiye",
      "lattitude": "40.0210623",
      "longitude": "32.831015",
      "id": 81
    },
    {
      "name": "Kızılcahamam, Ankara, Türkiye",
      "lattitude": "40.470348",
      "longitude": "32.650203",
      "id": 82
    },
    {
      "name": "Mamak, Ankara, Türkiye",
      "lattitude": "39.9124056",
      "longitude": "33.0563914",
      "id": 83
    },
    {
      "name": "Nallıhan, Ankara, Türkiye",
      "lattitude": "40.188868",
      "longitude": "31.350617",
      "id": 84
    },
    {
      "name": "Polatlı, Ankara, Türkiye",
      "lattitude": "39.585047",
      "longitude": "32.144701",
      "id": 85
    },
    {
      "name": "Pursaklar, Ankara, Türkiye",
      "lattitude": "40.038463",
      "longitude": "32.903356",
      "id": 86
    },
    {
      "name": "Sincan, Ankara, Türkiye",
      "lattitude": "39.966751",
      "longitude": "32.584229",
      "id": 87
    },
    {
      "name": "Şereflikoçhisar, Ankara, Türkiye",
      "lattitude": "38.93789",
      "longitude": "33.53916",
      "id": 88
    },
    {
      "name": "Yenimahalle, Ankara, Türkiye",
      "lattitude": "39.9904289",
      "longitude": "32.695547",
      "id": 89
    },
    {
      "name": "Akseki, Antalya, Türkiye",
      "lattitude": "37.045953",
      "longitude": "31.790369",
      "id": 90
    },
    {
      "name": "Aksu, Antalya, Türkiye",
      "lattitude": "36.947597",
      "longitude": "30.850176",
      "id": 91
    },
    {
      "name": "Alanya, Antalya, Türkiye",
      "lattitude": "36.544443",
      "longitude": "31.995408",
      "id": 92
    },
    {
      "name": "Demre, Antalya, Türkiye",
      "lattitude": "36.244444",
      "longitude": "29.987479",
      "id": 93
    },
    {
      "name": "Döşemealtı, Antalya, Türkiye",
      "lattitude": "37.023026",
      "longitude": "30.60120899999999",
      "id": 94
    },
    {
      "name": "Elmalı, Antalya, Türkiye",
      "lattitude": "36.737838",
      "longitude": "29.916662",
      "id": 95
    },
    {
      "name": "Finike, Antalya, Türkiye",
      "lattitude": "36.297191",
      "longitude": "30.146037",
      "id": 96
    },
    {
      "name": "Gazipaşa, Antalya, Türkiye",
      "lattitude": "36.268562",
      "longitude": "32.314304",
      "id": 97
    },
    {
      "name": "Gündoğmuş, Antalya, Türkiye",
      "lattitude": "36.81494199999999",
      "longitude": "31.99895799999999",
      "id": 98
    },
    {
      "name": "İbradı, Antalya, Türkiye",
      "lattitude": "37.095966",
      "longitude": "31.595533",
      "id": 99
    },
    {
      "name": "Kaş, Antalya, Türkiye",
      "lattitude": "36.199913",
      "longitude": "29.63955",
      "id": 100
    },
    {
      "name": "Kemer, Antalya, Türkiye",
      "lattitude": "36.602792",
      "longitude": "30.559762",
      "id": 101
    },
    {
      "name": "Kepez, Antalya, Türkiye",
      "lattitude": "36.8968908",
      "longitude": "30.7133233",
      "id": 102
    },
    {
      "name": "Konyaaltı, Antalya, Türkiye",
      "lattitude": "36.837532",
      "longitude": "30.4818446",
      "id": 103
    },
    {
      "name": "Korkuteli, Antalya, Türkiye",
      "lattitude": "37.064426",
      "longitude": "30.196586",
      "id": 104
    },
    {
      "name": "Kumluca, Antalya, Türkiye",
      "lattitude": "36.366948",
      "longitude": "30.28576499999999",
      "id": 105
    },
    {
      "name": "Manavgat, Antalya, Türkiye",
      "lattitude": "36.786869",
      "longitude": "31.441282",
      "id": 106
    },
    {
      "name": "Muratpaşa, Antalya, Türkiye",
      "lattitude": "36.8827594",
      "longitude": "30.769476",
      "id": 107
    },
    {
      "name": "Serik, Antalya, Türkiye",
      "lattitude": "36.917399",
      "longitude": "31.10444699999999",
      "id": 108
    },
    {
      "name": "Ardahan merkez, Ardahan, Türkiye",
      "lattitude": "41.11295",
      "longitude": "42.70227999999999",
      "id": 109
    },
    {
      "name": "Çıldır, Ardahan, Türkiye",
      "lattitude": "41.1194667",
      "longitude": "43.1238114",
      "id": 110
    },
    {
      "name": "Damal, Ardahan, Türkiye",
      "lattitude": "41.3396169",
      "longitude": "42.83952",
      "id": 111
    },
    {
      "name": "Göle, Ardahan, Türkiye",
      "lattitude": "40.793352",
      "longitude": "42.6095339",
      "id": 112
    },
    {
      "name": "Hanak, Ardahan, Türkiye",
      "lattitude": "41.23340899999999",
      "longitude": "42.847777",
      "id": 113
    },
    {
      "name": "Posof, Ardahan, Türkiye",
      "lattitude": "41.50959900000001",
      "longitude": "42.727801",
      "id": 114
    },
    {
      "name": "Ardanuç, Artvin, Türkiye",
      "lattitude": "41.123378",
      "longitude": "42.065529",
      "id": 115
    },
    {
      "name": "Arhavi, Artvin, Türkiye",
      "lattitude": "41.353055",
      "longitude": "41.308995",
      "id": 116
    },
    {
      "name": "Artvin merkez, Artvin, Türkiye",
      "lattitude": "41.180937",
      "longitude": "41.820819",
      "id": 117
    },
    {
      "name": "Borçka, Artvin, Türkiye",
      "lattitude": "41.3637",
      "longitude": "41.6791",
      "id": 118
    },
    {
      "name": "Hopa, Artvin, Türkiye",
      "lattitude": "41.39461800000001",
      "longitude": "41.419843",
      "id": 119
    },
    {
      "name": "Murgul, Artvin, Türkiye",
      "lattitude": "41.278487",
      "longitude": "41.562261",
      "id": 120
    },
    {
      "name": "Şavşat, Artvin, Türkiye",
      "lattitude": "41.252757",
      "longitude": "42.354672",
      "id": 121
    },
    {
      "name": "Yusufeli, Artvin, Türkiye",
      "lattitude": "40.820669",
      "longitude": "41.543647",
      "id": 122
    },
    {
      "name": "Bozdoğan, Aydın, Türkiye",
      "lattitude": "37.672873",
      "longitude": "28.310157",
      "id": 123
    },
    {
      "name": "Buharkent, Aydın, Türkiye",
      "lattitude": "37.96390299999999",
      "longitude": "28.74296",
      "id": 124
    },
    {
      "name": "Çine, Aydın, Türkiye",
      "lattitude": "37.614081",
      "longitude": "28.06114",
      "id": 125
    },
    {
      "name": "Didim, Aydın, Türkiye",
      "lattitude": "37.37609399999999",
      "longitude": "27.264729",
      "id": 126
    },
    {
      "name": "Efeler, Aydın, Türkiye",
      "lattitude": "37.8380162",
      "longitude": "27.8455601",
      "id": 127
    },
    {
      "name": "Germencik, Aydın, Türkiye",
      "lattitude": "37.872648",
      "longitude": "27.601134",
      "id": 128
    },
    {
      "name": "İncirliova, Aydın, Türkiye",
      "lattitude": "37.85378499999999",
      "longitude": "27.723424",
      "id": 129
    },
    {
      "name": "Karacasu, Aydın, Türkiye",
      "lattitude": "37.729068",
      "longitude": "28.607231",
      "id": 130
    },
    {
      "name": "Karpuzlu, Aydın, Türkiye",
      "lattitude": "37.56035",
      "longitude": "27.835809",
      "id": 131
    },
    {
      "name": "Koçarlı, Aydın, Türkiye",
      "lattitude": "37.66433749999999",
      "longitude": "27.6904167",
      "id": 132
    },
    {
      "name": "Köşk, Aydın, Türkiye",
      "lattitude": "37.853694",
      "longitude": "28.052133",
      "id": 133
    },
    {
      "name": "Kuşadası, Aydın, Türkiye",
      "lattitude": "37.857913",
      "longitude": "27.261015",
      "id": 134
    },
    {
      "name": "Kuyucak, Aydın, Türkiye",
      "lattitude": "37.913861",
      "longitude": "28.459786",
      "id": 135
    },
    {
      "name": "Nazilli, Aydın, Türkiye",
      "lattitude": "37.909777",
      "longitude": "28.324294",
      "id": 136
    },
    {
      "name": "Söke, Aydın, Türkiye",
      "lattitude": "37.75196100000001",
      "longitude": "27.405666",
      "id": 137
    },
    {
      "name": "Sultanhisar, Aydın, Türkiye",
      "lattitude": "37.88973300000001",
      "longitude": "28.154463",
      "id": 138
    },
    {
      "name": "Yenipazar, Aydın, Türkiye",
      "lattitude": "37.823396",
      "longitude": "28.195679",
      "id": 139
    },
    {
      "name": "Altıeylül, Balıkesir, Türkiye",
      "lattitude": "39.6452994",
      "longitude": "27.8817576",
      "id": 140
    },
    {
      "name": "Ayvalık, Balıkesir, Türkiye",
      "lattitude": "39.319185",
      "longitude": "26.692387",
      "id": 141
    },
    {
      "name": "Balya, Balıkesir, Türkiye",
      "lattitude": "39.749872",
      "longitude": "27.578821",
      "id": 142
    },
    {
      "name": "Bandırma, Balıkesir, Türkiye",
      "lattitude": "40.353707",
      "longitude": "27.971405",
      "id": 143
    },
    {
      "name": "Bigadiç, Balıkesir, Türkiye",
      "lattitude": "39.393883",
      "longitude": "28.131544",
      "id": 144
    },
    {
      "name": "Burhaniye, Balıkesir, Türkiye",
      "lattitude": "39.503055",
      "longitude": "26.980172",
      "id": 145
    },
    {
      "name": "Dursunbey, Balıkesir, Türkiye",
      "lattitude": "39.585671",
      "longitude": "28.627058",
      "id": 146
    },
    {
      "name": "Edremit, Balıkesir, Türkiye",
      "lattitude": "39.594664",
      "longitude": "27.021888",
      "id": 147
    },
    {
      "name": "Erdek, Balıkesir, Türkiye",
      "lattitude": "40.39832",
      "longitude": "27.791673",
      "id": 148
    },
    {
      "name": "Gömeç, Balıkesir, Türkiye",
      "lattitude": "39.3909329",
      "longitude": "26.83996",
      "id": 149
    },
    {
      "name": "Gönen, Balıkesir, Türkiye",
      "lattitude": "40.102572",
      "longitude": "27.658373",
      "id": 150
    },
    {
      "name": "Havran, Balıkesir, Türkiye",
      "lattitude": "39.55779",
      "longitude": "27.100236",
      "id": 151
    },
    {
      "name": "İvrindi, Balıkesir, Türkiye",
      "lattitude": "39.582007",
      "longitude": "27.485384",
      "id": 152
    },
    {
      "name": "Karesi, Balıkesir, Türkiye",
      "lattitude": "39.6560344",
      "longitude": "27.8455209",
      "id": 153
    },
    {
      "name": "Kepsut, Balıkesir, Türkiye",
      "lattitude": "39.6903999",
      "longitude": "28.152446",
      "id": 154
    },
    {
      "name": "Manyas, Balıkesir, Türkiye",
      "lattitude": "40.04740899999999",
      "longitude": "27.969529",
      "id": 155
    },
    {
      "name": "Marmara, Balıkesir, Türkiye",
      "lattitude": "40.587762",
      "longitude": "27.55722",
      "id": 156
    },
    {
      "name": "Savaştepe, Balıkesir, Türkiye",
      "lattitude": "39.38342400000001",
      "longitude": "27.6539",
      "id": 157
    },
    {
      "name": "Sındırgı, Balıkesir, Türkiye",
      "lattitude": "39.23884899999999",
      "longitude": "28.174979",
      "id": 158
    },
    {
      "name": "Susurluk, Balıkesir, Türkiye",
      "lattitude": "39.91391",
      "longitude": "28.156902",
      "id": 159
    },
    {
      "name": "Amasra, Bartın, Türkiye",
      "lattitude": "41.7470209",
      "longitude": "32.385537",
      "id": 160
    },
    {
      "name": "Bartın merkez, Bartın, Türkiye",
      "lattitude": "41.637602",
      "longitude": "32.333811",
      "id": 161
    },
    {
      "name": "Kurucaşile, Bartın, Türkiye",
      "lattitude": "41.843903",
      "longitude": "32.720692",
      "id": 162
    },
    {
      "name": "Ulus, Bartın, Türkiye",
      "lattitude": "41.583746",
      "longitude": "32.639804",
      "id": 163
    },
    {
      "name": "Batman merkez, Batman, Türkiye",
      "lattitude": "37.8895167",
      "longitude": "41.1292832",
      "id": 164
    },
    {
      "name": "Beşiri, Batman, Türkiye",
      "lattitude": "37.916208",
      "longitude": "41.292722",
      "id": 165
    },
    {
      "name": "Gercüş, Batman, Türkiye",
      "lattitude": "37.5682959",
      "longitude": "41.385329",
      "id": 166
    },
    {
      "name": "Hasankeyf, Batman, Türkiye",
      "lattitude": "37.712806",
      "longitude": "41.415208",
      "id": 167
    },
    {
      "name": "Kozluk, Batman, Türkiye",
      "lattitude": "38.193758",
      "longitude": "41.488861",
      "id": 168
    },
    {
      "name": "Sason, Batman, Türkiye",
      "lattitude": "38.333766",
      "longitude": "41.420293",
      "id": 169
    },
    {
      "name": "Aydıntepe, Bayburt, Türkiye",
      "lattitude": "40.38984300000001",
      "longitude": "40.146774",
      "id": 170
    },
    {
      "name": "Bayburt merkez, Bayburt, Türkiye",
      "lattitude": "40.26032",
      "longitude": "40.228048",
      "id": 171
    },
    {
      "name": "Demirözü, Bayburt, Türkiye",
      "lattitude": "40.162535",
      "longitude": "39.892849",
      "id": 172
    },
    {
      "name": "Bilecik merkez, Bilecik, Türkiye",
      "lattitude": "40.142573",
      "longitude": "29.97933",
      "id": 173
    },
    {
      "name": "Bozüyük, Bilecik, Türkiye",
      "lattitude": "39.906058",
      "longitude": "30.039825",
      "id": 174
    },
    {
      "name": "Gölpazarı, Bilecik, Türkiye",
      "lattitude": "40.283617",
      "longitude": "30.315302",
      "id": 175
    },
    {
      "name": "İnhisar, Bilecik, Türkiye",
      "lattitude": "40.04910599999999",
      "longitude": "30.385625",
      "id": 176
    },
    {
      "name": "Osmaneli, Bilecik, Türkiye",
      "lattitude": "40.3584",
      "longitude": "30.0134",
      "id": 177
    },
    {
      "name": "Pazaryeri, Bilecik, Türkiye",
      "lattitude": "39.995528",
      "longitude": "29.903447",
      "id": 178
    },
    {
      "name": "Söğüt, Bilecik, Türkiye",
      "lattitude": "40.0150999",
      "longitude": "30.1834",
      "id": 179
    },
    {
      "name": "Yenipazar, Bilecik, Türkiye",
      "lattitude": "40.178035",
      "longitude": "30.518959",
      "id": 180
    },
    {
      "name": "Adaklı, Bingöl, Türkiye",
      "lattitude": "39.228564",
      "longitude": "40.48267999999999",
      "id": 181
    },
    {
      "name": "Bingöl merkez, Bingöl, Türkiye",
      "lattitude": "38.885464",
      "longitude": "40.496625",
      "id": 182
    },
    {
      "name": "Genç, Bingöl, Türkiye",
      "lattitude": "38.748405",
      "longitude": "40.553932",
      "id": 183
    },
    {
      "name": "Karlıova, Bingöl, Türkiye",
      "lattitude": "39.297996",
      "longitude": "41.014368",
      "id": 184
    },
    {
      "name": "Kiğı, Bingöl, Türkiye",
      "lattitude": "39.310059",
      "longitude": "40.349048",
      "id": 185
    },
    {
      "name": "Solhan, Bingöl, Türkiye",
      "lattitude": "38.967912",
      "longitude": "41.053772",
      "id": 186
    },
    {
      "name": "Yayladere, Bingöl, Türkiye",
      "lattitude": "39.227956",
      "longitude": "40.069078",
      "id": 187
    },
    {
      "name": "Yedisu, Bingöl, Türkiye",
      "lattitude": "39.433943",
      "longitude": "40.54529100000001",
      "id": 188
    },
    {
      "name": "Adilcevaz, Bitlis, Türkiye",
      "lattitude": "38.804925",
      "longitude": "42.736511",
      "id": 189
    },
    {
      "name": "Ahlat, Bitlis, Türkiye",
      "lattitude": "38.755285",
      "longitude": "42.487073",
      "id": 190
    },
    {
      "name": "Bitlis merkez, Bitlis, Türkiye",
      "lattitude": "38.400569",
      "longitude": "42.109502",
      "id": 191
    },
    {
      "name": "Güroymak, Bitlis, Türkiye",
      "lattitude": "38.576434",
      "longitude": "42.02062",
      "id": 192
    },
    {
      "name": "Hizan, Bitlis, Türkiye",
      "lattitude": "38.225522",
      "longitude": "42.428113",
      "id": 193
    },
    {
      "name": "Mutki, Bitlis, Türkiye",
      "lattitude": "38.408588",
      "longitude": "41.92232",
      "id": 194
    },
    {
      "name": "Tatvan, Bitlis, Türkiye",
      "lattitude": "38.501998",
      "longitude": "42.281276",
      "id": 195
    },
    {
      "name": "Bolu merkez, Bolu, Türkiye",
      "lattitude": "40.732541",
      "longitude": "31.608209",
      "id": 196
    },
    {
      "name": "Dörtdivan, Bolu, Türkiye",
      "lattitude": "40.720766",
      "longitude": "32.062477",
      "id": 197
    },
    {
      "name": "Gerede, Bolu, Türkiye",
      "lattitude": "40.800325",
      "longitude": "32.193323",
      "id": 198
    },
    {
      "name": "Göynük, Bolu, Türkiye",
      "lattitude": "40.403205",
      "longitude": "30.78565",
      "id": 199
    },
    {
      "name": "Kıbrıscık, Bolu, Türkiye",
      "lattitude": "40.4514949",
      "longitude": "31.86552069999999",
      "id": 200
    },
    {
      "name": "Mengen, Bolu, Türkiye",
      "lattitude": "40.939139",
      "longitude": "32.073868",
      "id": 201
    },
    {
      "name": "Mudurnu, Bolu, Türkiye",
      "lattitude": "40.462581",
      "longitude": "31.211936",
      "id": 202
    },
    {
      "name": "Seben, Bolu, Türkiye",
      "lattitude": "40.411159",
      "longitude": "31.569864",
      "id": 203
    },
    {
      "name": "Yeniçağa, Bolu, Türkiye",
      "lattitude": "40.771323",
      "longitude": "32.02994",
      "id": 204
    },
    {
      "name": "Ağlasun, Burdur, Türkiye",
      "lattitude": "37.649367",
      "longitude": "30.534",
      "id": 205
    },
    {
      "name": "Altınyayla, Burdur, Türkiye",
      "lattitude": "36.997551",
      "longitude": "29.544615",
      "id": 206
    },
    {
      "name": "Bucak, Burdur, Türkiye",
      "lattitude": "37.456548",
      "longitude": "30.589834",
      "id": 207
    },
    {
      "name": "Burdur merkez, Burdur, Türkiye",
      "lattitude": "37.718336",
      "longitude": "30.282333",
      "id": 208
    },
    {
      "name": "Çavdır, Burdur, Türkiye",
      "lattitude": "37.155145",
      "longitude": "29.689771",
      "id": 209
    },
    {
      "name": "Çeltikçi, Burdur, Türkiye",
      "lattitude": "37.533847",
      "longitude": "30.482747",
      "id": 210
    },
    {
      "name": "Gölhisar, Burdur, Türkiye",
      "lattitude": "37.140808",
      "longitude": "29.507458",
      "id": 211
    },
    {
      "name": "Karamanlı, Burdur, Türkiye",
      "lattitude": "37.372924",
      "longitude": "29.823857",
      "id": 212
    },
    {
      "name": "Kemer, Burdur, Türkiye",
      "lattitude": "37.353319",
      "longitude": "30.061216",
      "id": 213
    },
    {
      "name": "Tefenni, Burdur, Türkiye",
      "lattitude": "37.3095",
      "longitude": "29.774715",
      "id": 214
    },
    {
      "name": "Yeşilova, Burdur, Türkiye",
      "lattitude": "37.506858",
      "longitude": "29.752902",
      "id": 215
    },
    {
      "name": "Büyükorhan, Bursa, Türkiye",
      "lattitude": "39.773188",
      "longitude": "28.885377",
      "id": 216
    },
    {
      "name": "Gemlik, Bursa, Türkiye",
      "lattitude": "40.43181999999999",
      "longitude": "29.155416",
      "id": 217
    },
    {
      "name": "Gürsu, Bursa, Türkiye",
      "lattitude": "40.217894",
      "longitude": "29.19372",
      "id": 218
    },
    {
      "name": "Harmancık, Bursa, Türkiye",
      "lattitude": "39.6778",
      "longitude": "29.1563",
      "id": 219
    },
    {
      "name": "İnegöl, Bursa, Türkiye",
      "lattitude": "40.0800822",
      "longitude": "29.5096969",
      "id": 220
    },
    {
      "name": "İznik, Bursa, Türkiye",
      "lattitude": "40.429524",
      "longitude": "29.719743",
      "id": 221
    },
    {
      "name": "Karacabey, Bursa, Türkiye",
      "lattitude": "40.216037",
      "longitude": "28.359",
      "id": 222
    },
    {
      "name": "Keles, Bursa, Türkiye",
      "lattitude": "39.91288600000001",
      "longitude": "29.235896",
      "id": 223
    },
    {
      "name": "Kestel, Bursa, Türkiye",
      "lattitude": "40.20095000000001",
      "longitude": "29.212532",
      "id": 224
    },
    {
      "name": "Mudanya, Bursa, Türkiye",
      "lattitude": "40.376973",
      "longitude": "28.883246",
      "id": 225
    },
    {
      "name": "Mustafakemalpaşa, Bursa, Türkiye",
      "lattitude": "40.0394409",
      "longitude": "28.405177",
      "id": 226
    },
    {
      "name": "Nilüfer, Bursa, Türkiye",
      "lattitude": "40.1885281",
      "longitude": "29.0609636",
      "id": 227
    },
    {
      "name": "Orhaneli, Bursa, Türkiye",
      "lattitude": "39.9037999",
      "longitude": "28.9907",
      "id": 228
    },
    {
      "name": "Orhangazi, Bursa, Türkiye",
      "lattitude": "40.49008",
      "longitude": "29.30880599999999",
      "id": 229
    },
    {
      "name": "Osmangazi, Bursa, Türkiye",
      "lattitude": "40.1885281",
      "longitude": "29.0609636",
      "id": 230
    },
    {
      "name": "Yenişehir, Bursa, Türkiye",
      "lattitude": "40.264198",
      "longitude": "29.650687",
      "id": 231
    },
    {
      "name": "Yıldırım, Bursa, Türkiye",
      "lattitude": "40.1787113",
      "longitude": "29.1623231",
      "id": 232
    },
    {
      "name": "Ayvacık, Çanakkale, Türkiye",
      "lattitude": "39.603753",
      "longitude": "26.401857",
      "id": 233
    },
    {
      "name": "Bayramiç, Çanakkale, Türkiye",
      "lattitude": "39.809523",
      "longitude": "26.612047",
      "id": 234
    },
    {
      "name": "Biga, Çanakkale, Türkiye",
      "lattitude": "40.226527",
      "longitude": "27.243625",
      "id": 235
    },
    {
      "name": "Bozcaada, Çanakkale, Türkiye",
      "lattitude": "39.8205136",
      "longitude": "26.035717",
      "id": 236
    },
    {
      "name": "Çan, Çanakkale, Türkiye",
      "lattitude": "40.028167",
      "longitude": "27.046634",
      "id": 237
    },
    {
      "name": "Çanakkale merkez, Çanakkale, Türkiye",
      "lattitude": "40.14671999999999",
      "longitude": "26.408587",
      "id": 238
    },
    {
      "name": "Eceabat, Çanakkale, Türkiye",
      "lattitude": "40.184286",
      "longitude": "26.359394",
      "id": 239
    },
    {
      "name": "Ezine, Çanakkale, Türkiye",
      "lattitude": "39.787126",
      "longitude": "26.335866",
      "id": 240
    },
    {
      "name": "Gelibolu, Çanakkale, Türkiye",
      "lattitude": "40.4139849",
      "longitude": "26.669997",
      "id": 241
    },
    {
      "name": "Gökçeada, Çanakkale, Türkiye",
      "lattitude": "40.1929461",
      "longitude": "25.9039948",
      "id": 242
    },
    {
      "name": "Lapseki, Çanakkale, Türkiye",
      "lattitude": "40.345477",
      "longitude": "26.6843049",
      "id": 243
    },
    {
      "name": "Yenice, Çanakkale, Türkiye",
      "lattitude": "39.929543",
      "longitude": "27.259331",
      "id": 244
    },
    {
      "name": "Atkaracalar, Çankırı, Türkiye",
      "lattitude": "40.815512",
      "longitude": "33.075476",
      "id": 245
    },
    {
      "name": "Bayramören, Çankırı, Türkiye",
      "lattitude": "40.94300700000001",
      "longitude": "33.204037",
      "id": 246
    },
    {
      "name": "Çankırı merkez, Çankırı, Türkiye",
      "lattitude": "40.51789309999999",
      "longitude": "33.7600452",
      "id": 247
    },
    {
      "name": "Çerkeş, Çankırı, Türkiye",
      "lattitude": "40.8113249",
      "longitude": "32.891128",
      "id": 248
    },
    {
      "name": "Eldivan, Çankırı, Türkiye",
      "lattitude": "40.528982",
      "longitude": "33.499665",
      "id": 249
    },
    {
      "name": "Ilgaz, Çankırı, Türkiye",
      "lattitude": "40.925238",
      "longitude": "33.627178",
      "id": 250
    },
    {
      "name": "Kızılırmak, Çankırı, Türkiye",
      "lattitude": "40.347432",
      "longitude": "33.98713000000001",
      "id": 251
    },
    {
      "name": "Korgun, Çankırı, Türkiye",
      "lattitude": "40.735881",
      "longitude": "33.518192",
      "id": 252
    },
    {
      "name": "Kurşunlu, Çankırı, Türkiye",
      "lattitude": "40.841299",
      "longitude": "33.26074699999999",
      "id": 253
    },
    {
      "name": "Orta, Çankırı, Türkiye",
      "lattitude": "40.625729",
      "longitude": "33.108365",
      "id": 254
    },
    {
      "name": "Şabanözü, Çankırı, Türkiye",
      "lattitude": "40.483164",
      "longitude": "33.2826639",
      "id": 255
    },
    {
      "name": "Yapraklı, Çankırı, Türkiye",
      "lattitude": "40.75705",
      "longitude": "33.778806",
      "id": 256
    },
    {
      "name": "Alaca, Çorum, Türkiye",
      "lattitude": "40.169282",
      "longitude": "34.841768",
      "id": 257
    },
    {
      "name": "Bayat, Çorum, Türkiye",
      "lattitude": "40.64450300000001",
      "longitude": "34.262862",
      "id": 258
    },
    {
      "name": "Boğazkale, Çorum, Türkiye",
      "lattitude": "40.021565",
      "longitude": "34.609279",
      "id": 259
    },
    {
      "name": "Çorum merkez, Çorum, Türkiye",
      "lattitude": "40.54992560000001",
      "longitude": "34.9537242",
      "id": 260
    },
    {
      "name": "Dodurga, Çorum, Türkiye",
      "lattitude": "40.858764",
      "longitude": "34.808921",
      "id": 261
    },
    {
      "name": "İskilip, Çorum, Türkiye",
      "lattitude": "40.730648",
      "longitude": "34.471011",
      "id": 262
    },
    {
      "name": "Kargı, Çorum, Türkiye",
      "lattitude": "41.13453",
      "longitude": "34.487155",
      "id": 263
    },
    {
      "name": "Laçin, Çorum, Türkiye",
      "lattitude": "40.770609",
      "longitude": "34.887462",
      "id": 264
    },
    {
      "name": "Mecitözü, Çorum, Türkiye",
      "lattitude": "40.5205259",
      "longitude": "35.295288",
      "id": 265
    },
    {
      "name": "Oğuzlar, Çorum, Türkiye",
      "lattitude": "40.75429",
      "longitude": "34.704836",
      "id": 266
    },
    {
      "name": "Ortaköy, Çorum, Türkiye",
      "lattitude": "40.27276",
      "longitude": "35.248204",
      "id": 267
    },
    {
      "name": "Osmancık, Çorum, Türkiye",
      "lattitude": "40.96895800000001",
      "longitude": "34.800122",
      "id": 268
    },
    {
      "name": "Sungurlu, Çorum, Türkiye",
      "lattitude": "40.163659",
      "longitude": "34.375229",
      "id": 269
    },
    {
      "name": "Uğurludağ, Çorum, Türkiye",
      "lattitude": "40.445422",
      "longitude": "34.451614",
      "id": 270
    },
    {
      "name": "Acıpayam, Denizli, Türkiye",
      "lattitude": "37.426385",
      "longitude": "29.351143",
      "id": 271
    },
    {
      "name": "Babadağ, Denizli, Türkiye",
      "lattitude": "37.810661",
      "longitude": "28.858782",
      "id": 272
    },
    {
      "name": "Baklan, Denizli, Türkiye",
      "lattitude": "37.976748",
      "longitude": "29.606909",
      "id": 273
    },
    {
      "name": "Bekilli, Denizli, Türkiye",
      "lattitude": "38.230167",
      "longitude": "29.418785",
      "id": 274
    },
    {
      "name": "Beyağaç, Denizli, Türkiye",
      "lattitude": "37.235995",
      "longitude": "28.897509",
      "id": 275
    },
    {
      "name": "Bozkurt, Denizli, Türkiye",
      "lattitude": "37.821021",
      "longitude": "29.60639",
      "id": 276
    },
    {
      "name": "Buldan, Denizli, Türkiye",
      "lattitude": "38.044206",
      "longitude": "28.834598",
      "id": 277
    },
    {
      "name": "Çal, Denizli, Türkiye",
      "lattitude": "38.083013",
      "longitude": "29.397279",
      "id": 278
    },
    {
      "name": "Çameli, Denizli, Türkiye",
      "lattitude": "37.076768",
      "longitude": "29.35148199999999",
      "id": 279
    },
    {
      "name": "Çardak, Denizli, Türkiye",
      "lattitude": "37.825035",
      "longitude": "29.668323",
      "id": 280
    },
    {
      "name": "Çivril, Denizli, Türkiye",
      "lattitude": "38.30212",
      "longitude": "29.740258",
      "id": 281
    },
    {
      "name": "Güney, Denizli, Türkiye",
      "lattitude": "38.1544809",
      "longitude": "29.064356",
      "id": 282
    },
    {
      "name": "Honaz, Denizli, Türkiye",
      "lattitude": "37.75696",
      "longitude": "29.264256",
      "id": 283
    },
    {
      "name": "Kale, Denizli, Türkiye",
      "lattitude": "37.451893",
      "longitude": "28.849892",
      "id": 284
    },
    {
      "name": "Merkezefendi, Denizli, Türkiye",
      "lattitude": "37.7835168",
      "longitude": "29.0772146",
      "id": 285
    },
    {
      "name": "Pamukkale, Denizli, Türkiye",
      "lattitude": "37.9186089",
      "longitude": "29.1103070",
      "id": 286
    },
    {
      "name": "Sarayköy, Denizli, Türkiye",
      "lattitude": "37.924452",
      "longitude": "28.923078",
      "id": 287
    },
    {
      "name": "Serinhisar, Denizli, Türkiye",
      "lattitude": "37.587955",
      "longitude": "29.266039",
      "id": 288
    },
    {
      "name": "Tavas, Denizli, Türkiye",
      "lattitude": "37.573068",
      "longitude": "29.071329",
      "id": 289
    },
    {
      "name": "Bağlar, Diyarbakır, Türkiye",
      "lattitude": "37.9249733",
      "longitude": "40.2109826",
      "id": 290
    },
    {
      "name": "Bismil, Diyarbakır, Türkiye",
      "lattitude": "37.850055",
      "longitude": "40.668688",
      "id": 291
    },
    {
      "name": "Çermik, Diyarbakır, Türkiye",
      "lattitude": "38.135092",
      "longitude": "39.45611900000001",
      "id": 292
    },
    {
      "name": "Çınar, Diyarbakır, Türkiye",
      "lattitude": "37.724137",
      "longitude": "40.4134839",
      "id": 293
    },
    {
      "name": "Çüngüş, Diyarbakır, Türkiye",
      "lattitude": "38.212324",
      "longitude": "39.288407",
      "id": 294
    },
    {
      "name": "Dicle, Diyarbakır, Türkiye",
      "lattitude": "38.373308",
      "longitude": "40.075578",
      "id": 295
    },
    {
      "name": "Eğil, Diyarbakır, Türkiye",
      "lattitude": "38.257912",
      "longitude": "40.081152",
      "id": 296
    },
    {
      "name": "Ergani, Diyarbakır, Türkiye",
      "lattitude": "38.268035",
      "longitude": "39.761729",
      "id": 297
    },
    {
      "name": "Hani, Diyarbakır, Türkiye",
      "lattitude": "38.411175",
      "longitude": "40.3961619",
      "id": 298
    },
    {
      "name": "Hazro, Diyarbakır, Türkiye",
      "lattitude": "38.253757",
      "longitude": "40.780811",
      "id": 299
    },
    {
      "name": "Kayapınar, Diyarbakır, Türkiye",
      "lattitude": "37.9249733",
      "longitude": "40.2109826",
      "id": 300
    },
    {
      "name": "Kocaköy, Diyarbakır, Türkiye",
      "lattitude": "38.2918189",
      "longitude": "40.50552",
      "id": 301
    },
    {
      "name": "Kulp, Diyarbakır, Türkiye",
      "lattitude": "38.500119",
      "longitude": "41.009861",
      "id": 302
    },
    {
      "name": "Lice, Diyarbakır, Türkiye",
      "lattitude": "38.453188",
      "longitude": "40.652057",
      "id": 303
    },
    {
      "name": "Silvan, Diyarbakır, Türkiye",
      "lattitude": "38.141225",
      "longitude": "41.012807",
      "id": 304
    },
    {
      "name": "Sur, Diyarbakır, Türkiye",
      "lattitude": "38.0597606",
      "longitude": "40.388604",
      "id": 305
    },
    {
      "name": "Yenişehir, Diyarbakır, Türkiye",
      "lattitude": "37.9249733",
      "longitude": "40.2109826",
      "id": 306
    },
    {
      "name": "Akçakoca, Düzce, Türkiye",
      "lattitude": "41.088181",
      "longitude": "31.123976",
      "id": 307
    },
    {
      "name": "Cumayeri, Düzce, Türkiye",
      "lattitude": "40.8733379",
      "longitude": "30.950758",
      "id": 308
    },
    {
      "name": "Çilimli, Düzce, Türkiye",
      "lattitude": "40.893433",
      "longitude": "31.046865",
      "id": 309
    },
    {
      "name": "Düzce merkez, Düzce, Türkiye",
      "lattitude": "40.83872",
      "longitude": "31.162609",
      "id": 310
    },
    {
      "name": "Gölyaka, Düzce, Türkiye",
      "lattitude": "40.77673",
      "longitude": "30.996406",
      "id": 311
    },
    {
      "name": "Gümüşova, Düzce, Türkiye",
      "lattitude": "40.846027",
      "longitude": "30.939058",
      "id": 312
    },
    {
      "name": "Kaynaşlı, Düzce, Türkiye",
      "lattitude": "40.776033",
      "longitude": "31.303863",
      "id": 313
    },
    {
      "name": "Yığılca, Düzce, Türkiye",
      "lattitude": "40.9602829",
      "longitude": "31.443039",
      "id": 314
    },
    {
      "name": "Edirne merkez, Edirne, Türkiye",
      "lattitude": "41.67712969999999",
      "longitude": "26.5557145",
      "id": 315
    },
    {
      "name": "Enez, Edirne, Türkiye",
      "lattitude": "40.725024",
      "longitude": "26.084574",
      "id": 316
    },
    {
      "name": "Havsa, Edirne, Türkiye",
      "lattitude": "41.5488659",
      "longitude": "26.82151",
      "id": 317
    },
    {
      "name": "İpsala, Edirne, Türkiye",
      "lattitude": "40.929232",
      "longitude": "26.393941",
      "id": 318
    },
    {
      "name": "Keşan, Edirne, Türkiye",
      "lattitude": "40.858615",
      "longitude": "26.630041",
      "id": 319
    },
    {
      "name": "Lalapaşa, Edirne, Türkiye",
      "lattitude": "41.839142",
      "longitude": "26.734625",
      "id": 320
    },
    {
      "name": "Meriç, Edirne, Türkiye",
      "lattitude": "41.191049",
      "longitude": "26.418175",
      "id": 321
    },
    {
      "name": "Süloğlu, Edirne, Türkiye",
      "lattitude": "41.767775",
      "longitude": "26.910250",
      "id": 322
    },
    {
      "name": "Uzunköprü, Edirne, Türkiye",
      "lattitude": "41.266979",
      "longitude": "26.687679",
      "id": 323
    },
    {
      "name": "Ağın, Elazığ, Türkiye",
      "lattitude": "38.943003",
      "longitude": "38.715573",
      "id": 324
    },
    {
      "name": "Alacakaya, Elazığ, Türkiye",
      "lattitude": "38.461835",
      "longitude": "39.861713",
      "id": 325
    },
    {
      "name": "Arıcak, Elazığ, Türkiye",
      "lattitude": "38.56351000000001",
      "longitude": "40.134626",
      "id": 326
    },
    {
      "name": "Baskil, Elazığ, Türkiye",
      "lattitude": "38.567829",
      "longitude": "38.823716",
      "id": 327
    },
    {
      "name": "Elazığ merkez, Elazığ, Türkiye",
      "lattitude": "38.674816",
      "longitude": "39.22251500000001",
      "id": 328
    },
    {
      "name": "Karakoçan, Elazığ, Türkiye",
      "lattitude": "38.95578",
      "longitude": "40.035946",
      "id": 329
    },
    {
      "name": "Keban, Elazığ, Türkiye",
      "lattitude": "38.793889",
      "longitude": "38.744542",
      "id": 330
    },
    {
      "name": "Kovancılar, Elazığ, Türkiye",
      "lattitude": "38.717915",
      "longitude": "39.866591",
      "id": 331
    },
    {
      "name": "Maden, Elazığ, Türkiye",
      "lattitude": "38.391691",
      "longitude": "39.667596",
      "id": 332
    },
    {
      "name": "Palu, Elazığ, Türkiye",
      "lattitude": "38.692434",
      "longitude": "39.932457",
      "id": 333
    },
    {
      "name": "Sivrice, Elazığ, Türkiye",
      "lattitude": "38.447041",
      "longitude": "39.309344",
      "id": 334
    },
    {
      "name": "Çayırlı, Erzincan, Türkiye",
      "lattitude": "39.804236",
      "longitude": "40.037093",
      "id": 335
    },
    {
      "name": "Erzincan merkez, Erzincan, Türkiye",
      "lattitude": "39.746797",
      "longitude": "39.491124",
      "id": 336
    },
    {
      "name": "İliç, Erzincan, Türkiye",
      "lattitude": "39.456484",
      "longitude": "38.564713",
      "id": 337
    },
    {
      "name": "Kemah, Erzincan, Türkiye",
      "lattitude": "39.60225200000001",
      "longitude": "39.035024",
      "id": 338
    },
    {
      "name": "Kemaliye, Erzincan, Türkiye",
      "lattitude": "39.262041",
      "longitude": "38.496896",
      "id": 339
    },
    {
      "name": "Otlukbeli, Erzincan, Türkiye",
      "lattitude": "39.9736",
      "longitude": "40.02209999999999",
      "id": 340
    },
    {
      "name": "Refahiye, Erzincan, Türkiye",
      "lattitude": "39.899583",
      "longitude": "38.768068",
      "id": 341
    },
    {
      "name": "Tercan, Erzincan, Türkiye",
      "lattitude": "39.777631",
      "longitude": "40.383667",
      "id": 342
    },
    {
      "name": "Üzümlü, Erzincan, Türkiye",
      "lattitude": "39.710298",
      "longitude": "39.701307",
      "id": 343
    },
    {
      "name": "Aşkale, Erzurum, Türkiye",
      "lattitude": "39.920188",
      "longitude": "40.694704",
      "id": 344
    },
    {
      "name": "Aziziye, Erzurum, Türkiye",
      "lattitude": "39.94579",
      "longitude": "41.105188",
      "id": 345
    },
    {
      "name": "Çat, Erzurum, Türkiye",
      "lattitude": "39.6120469",
      "longitude": "40.97758",
      "id": 346
    },
    {
      "name": "Hınıs, Erzurum, Türkiye",
      "lattitude": "39.359643",
      "longitude": "41.709421",
      "id": 347
    },
    {
      "name": "Horasan, Erzurum, Türkiye",
      "lattitude": "40.040049",
      "longitude": "42.16887699999999",
      "id": 348
    },
    {
      "name": "İspir, Erzurum, Türkiye",
      "lattitude": "40.484277",
      "longitude": "41.000392",
      "id": 349
    },
    {
      "name": "Karaçoban, Erzurum, Türkiye",
      "lattitude": "39.350684",
      "longitude": "42.11274299999999",
      "id": 350
    },
    {
      "name": "Karayazı, Erzurum, Türkiye",
      "lattitude": "39.70276",
      "longitude": "42.14555499999999",
      "id": 351
    },
    {
      "name": "Köprüköy, Erzurum, Türkiye",
      "lattitude": "39.973599",
      "longitude": "41.873118",
      "id": 352
    },
    {
      "name": "Narman, Erzurum, Türkiye",
      "lattitude": "40.343686",
      "longitude": "41.870196",
      "id": 353
    },
    {
      "name": "Oltu, Erzurum, Türkiye",
      "lattitude": "40.545963",
      "longitude": "41.995634",
      "id": 354
    },
    {
      "name": "Olur, Erzurum, Türkiye",
      "lattitude": "40.827808",
      "longitude": "42.128556",
      "id": 355
    },
    {
      "name": "Palandöken, Erzurum, Türkiye",
      "lattitude": "39.9054993",
      "longitude": "41.2658236",
      "id": 356
    },
    {
      "name": "Pasinler, Erzurum, Türkiye",
      "lattitude": "39.977182",
      "longitude": "41.6680769",
      "id": 357
    },
    {
      "name": "Pazaryolu, Erzurum, Türkiye",
      "lattitude": "40.4143029",
      "longitude": "40.77365899999999",
      "id": 358
    },
    {
      "name": "Şenkaya, Erzurum, Türkiye",
      "lattitude": "40.561599",
      "longitude": "42.3471199",
      "id": 359
    },
    {
      "name": "Tekman, Erzurum, Türkiye",
      "lattitude": "39.645445",
      "longitude": "41.507381",
      "id": 360
    },
    {
      "name": "Tortum, Erzurum, Türkiye",
      "lattitude": "40.29465099999999",
      "longitude": "41.549952",
      "id": 361
    },
    {
      "name": "Uzundere, Erzurum, Türkiye",
      "lattitude": "40.53279",
      "longitude": "41.54794100000001",
      "id": 362
    },
    {
      "name": "Yakutiye, Erzurum, Türkiye",
      "lattitude": "39.9054993",
      "longitude": "41.2658236",
      "id": 363
    },
    {
      "name": "Alpu, Eskişehir, Türkiye",
      "lattitude": "39.76575700000001",
      "longitude": "30.958612",
      "id": 364
    },
    {
      "name": "Beylikova, Eskişehir, Türkiye",
      "lattitude": "39.689399",
      "longitude": "31.205772",
      "id": 365
    },
    {
      "name": "Çifteler, Eskişehir, Türkiye",
      "lattitude": "39.382",
      "longitude": "31.0408",
      "id": 366
    },
    {
      "name": "Günyüzü, Eskişehir, Türkiye",
      "lattitude": "39.3842",
      "longitude": "31.81",
      "id": 367
    },
    {
      "name": "Han, Eskişehir, Türkiye",
      "lattitude": "39.1606",
      "longitude": "30.8617",
      "id": 368
    },
    {
      "name": "İnönü, Eskişehir, Türkiye",
      "lattitude": "39.8225",
      "longitude": "30.1455",
      "id": 369
    },
    {
      "name": "Mahmudiye, Eskişehir, Türkiye",
      "lattitude": "39.49437",
      "longitude": "30.986353",
      "id": 370
    },
    {
      "name": "Mihalgazi, Eskişehir, Türkiye",
      "lattitude": "40.026226",
      "longitude": "30.577051",
      "id": 371
    },
    {
      "name": "Mihalıççık, Eskişehir, Türkiye",
      "lattitude": "39.9232301",
      "longitude": "31.5370003",
      "id": 372
    },
    {
      "name": "Odunpazarı, Eskişehir, Türkiye",
      "lattitude": "39.7667061",
      "longitude": "30.52563109999999",
      "id": 373
    },
    {
      "name": "Sarıcakaya, Eskişehir, Türkiye",
      "lattitude": "40.037399",
      "longitude": "30.617602",
      "id": 374
    },
    {
      "name": "Seyitgazi, Eskişehir, Türkiye",
      "lattitude": "39.445619",
      "longitude": "30.693912",
      "id": 375
    },
    {
      "name": "Sivrihisar, Eskişehir, Türkiye",
      "lattitude": "39.4513",
      "longitude": "31.5378",
      "id": 376
    },
    {
      "name": "Tepebaşı, Eskişehir, Türkiye",
      "lattitude": "39.7667061",
      "longitude": "30.52563109999999",
      "id": 377
    },
    {
      "name": "Araban, Gaziantep, Türkiye",
      "lattitude": "37.42537",
      "longitude": "37.689557",
      "id": 378
    },
    {
      "name": "İslahiye, Gaziantep, Türkiye",
      "lattitude": "37.0253439",
      "longitude": "36.631112",
      "id": 379
    },
    {
      "name": "Karkamış, Gaziantep, Türkiye",
      "lattitude": "36.8358009",
      "longitude": "37.9953209",
      "id": 380
    },
    {
      "name": "Nizip, Gaziantep, Türkiye",
      "lattitude": "37.009926",
      "longitude": "37.796949",
      "id": 381
    },
    {
      "name": "Nurdağı, Gaziantep, Türkiye",
      "lattitude": "37.1759879",
      "longitude": "36.740587",
      "id": 382
    },
    {
      "name": "Oğuzeli, Gaziantep, Türkiye",
      "lattitude": "36.965343",
      "longitude": "37.510709",
      "id": 383
    },
    {
      "name": "Şahinbey, Gaziantep, Türkiye",
      "lattitude": "37.065953",
      "longitude": "37.37811",
      "id": 384
    },
    {
      "name": "Şehitkamil, Gaziantep, Türkiye",
      "lattitude": "37.065953",
      "longitude": "37.37811",
      "id": 385
    },
    {
      "name": "Yavuzeli, Gaziantep, Türkiye",
      "lattitude": "37.318254",
      "longitude": "37.566833",
      "id": 386
    },
    {
      "name": "Alucra, Giresun, Türkiye",
      "lattitude": "40.318174",
      "longitude": "38.767531",
      "id": 387
    },
    {
      "name": "Bulancak, Giresun, Türkiye",
      "lattitude": "40.937513",
      "longitude": "38.232043",
      "id": 388
    },
    {
      "name": "Çamoluk, Giresun, Türkiye",
      "lattitude": "40.129453",
      "longitude": "38.747531",
      "id": 389
    },
    {
      "name": "Çanakçı, Giresun, Türkiye",
      "lattitude": "40.917088",
      "longitude": "39.009745",
      "id": 390
    },
    {
      "name": "Dereli, Giresun, Türkiye",
      "lattitude": "40.739918",
      "longitude": "38.44941499999999",
      "id": 391
    },
    {
      "name": "Doğankent, Giresun, Türkiye",
      "lattitude": "40.810153",
      "longitude": "38.916161",
      "id": 392
    },
    {
      "name": "Espiye, Giresun, Türkiye",
      "lattitude": "40.949744",
      "longitude": "38.708485",
      "id": 393
    },
    {
      "name": "Eynesil, Giresun, Türkiye",
      "lattitude": "41.06304799999999",
      "longitude": "39.141031",
      "id": 394
    },
    {
      "name": "Giresun merkez, Giresun, Türkiye",
      "lattitude": "40.91753200000001",
      "longitude": "38.392653",
      "id": 395
    },
    {
      "name": "Görele, Giresun, Türkiye",
      "lattitude": "41.033277",
      "longitude": "39.002071",
      "id": 396
    },
    {
      "name": "Güce, Giresun, Türkiye",
      "lattitude": "40.89297699999999",
      "longitude": "38.80763",
      "id": 397
    },
    {
      "name": "Keşap, Giresun, Türkiye",
      "lattitude": "40.915626",
      "longitude": "38.513043",
      "id": 398
    },
    {
      "name": "Piraziz, Giresun, Türkiye",
      "lattitude": "40.954562",
      "longitude": "38.119646",
      "id": 399
    },
    {
      "name": "Şebinkarahisar, Giresun, Türkiye",
      "lattitude": "40.28849599999999",
      "longitude": "38.422166",
      "id": 400
    },
    {
      "name": "Tirebolu, Giresun, Türkiye",
      "lattitude": "41.007457",
      "longitude": "38.814595",
      "id": 401
    },
    {
      "name": "Yağlıdere, Giresun, Türkiye",
      "lattitude": "40.8642169",
      "longitude": "38.62244099999999",
      "id": 402
    },
    {
      "name": "Gümüşhane merkez, Gümüşhane, Türkiye",
      "lattitude": "40.38429",
      "longitude": "39.6356538",
      "id": 403
    },
    {
      "name": "Kelkit, Gümüşhane, Türkiye",
      "lattitude": "40.128748",
      "longitude": "39.432256",
      "id": 404
    },
    {
      "name": "Köse, Gümüşhane, Türkiye",
      "lattitude": "40.210351",
      "longitude": "39.653136",
      "id": 405
    },
    {
      "name": "Kürtün, Gümüşhane, Türkiye",
      "lattitude": "40.701992",
      "longitude": "39.085431",
      "id": 406
    },
    {
      "name": "Şiran, Gümüşhane, Türkiye",
      "lattitude": "40.189364",
      "longitude": "39.127806",
      "id": 407
    },
    {
      "name": "Torul, Gümüşhane, Türkiye",
      "lattitude": "40.557866",
      "longitude": "39.293279",
      "id": 408
    },
    {
      "name": "Çukurca, Hakkari, Türkiye",
      "lattitude": "37.246903",
      "longitude": "43.6122749",
      "id": 409
    },
    {
      "name": "Hakkari merkez, Hakkari, Türkiye",
      "lattitude": "37.577427",
      "longitude": "43.736782",
      "id": 410
    },
    {
      "name": "Şemdinli, Hakkari, Türkiye",
      "lattitude": "37.3034419",
      "longitude": "44.57696",
      "id": 411
    },
    {
      "name": "Yüksekova, Hakkari, Türkiye",
      "lattitude": "37.571716",
      "longitude": "44.28229899999999",
      "id": 412
    },
    {
      "name": "Altınözü, Hatay, Türkiye",
      "lattitude": "36.0772722",
      "longitude": "36.3064595",
      "id": 413
    },
    {
      "name": "Antakya, Hatay, Türkiye",
      "lattitude": "36.2022842",
      "longitude": "36.1613221",
      "id": 414
    },
    {
      "name": "Arsuz, Hatay, Türkiye",
      "lattitude": "36.4071516",
      "longitude": "35.8879642",
      "id": 415
    },
    {
      "name": "Belen, Hatay, Türkiye",
      "lattitude": "36.490308",
      "longitude": "36.194707",
      "id": 416
    },
    {
      "name": "Defne, Hatay, Türkiye",
      "lattitude": "36.1935153",
      "longitude": "36.143635",
      "id": 417
    },
    {
      "name": "Dörtyol, Hatay, Türkiye",
      "lattitude": "36.84335799999999",
      "longitude": "36.221565",
      "id": 418
    },
    {
      "name": "Erzin, Hatay, Türkiye",
      "lattitude": "36.95383899999999",
      "longitude": "36.205229",
      "id": 419
    },
    {
      "name": "Hassa, Hatay, Türkiye",
      "lattitude": "36.798635",
      "longitude": "36.521963",
      "id": 420
    },
    {
      "name": "İskenderun, Hatay, Türkiye",
      "lattitude": "36.584673",
      "longitude": "36.1756161",
      "id": 421
    },
    {
      "name": "Kırıkhan, Hatay, Türkiye",
      "lattitude": "36.49673000000001",
      "longitude": "36.360703",
      "id": 422
    },
    {
      "name": "Kumlu, Hatay, Türkiye",
      "lattitude": "36.362718",
      "longitude": "36.451082",
      "id": 423
    },
    {
      "name": "Payas, Hatay, Türkiye",
      "lattitude": "36.7428656",
      "longitude": "36.2088316",
      "id": 424
    },
    {
      "name": "Reyhanlı, Hatay, Türkiye",
      "lattitude": "36.268523",
      "longitude": "36.567593",
      "id": 425
    },
    {
      "name": "Samandağ, Hatay, Türkiye",
      "lattitude": "36.086992",
      "longitude": "35.968537",
      "id": 426
    },
    {
      "name": "Yayladağı, Hatay, Türkiye",
      "lattitude": "35.90297100000001",
      "longitude": "36.062675",
      "id": 427
    },
    {
      "name": "Aralık, Iğdır, Türkiye",
      "lattitude": "39.873902",
      "longitude": "44.516055",
      "id": 428
    },
    {
      "name": "Iğdır merkez, Iğdır, Türkiye",
      "lattitude": "39.92005959999999",
      "longitude": "44.0436151",
      "id": 429
    },
    {
      "name": "Karakoyunlu, Iğdır, Türkiye",
      "lattitude": "39.970705",
      "longitude": "44.174382",
      "id": 430
    },
    {
      "name": "Tuzluca, Iğdır, Türkiye",
      "lattitude": "40.0400149",
      "longitude": "43.663164",
      "id": 431
    },
    {
      "name": "Aksu, Isparta, Türkiye",
      "lattitude": "37.799251",
      "longitude": "31.069571",
      "id": 432
    },
    {
      "name": "Atabey, Isparta, Türkiye",
      "lattitude": "37.950596",
      "longitude": "30.640785",
      "id": 433
    },
    {
      "name": "Eğirdir, Isparta, Türkiye",
      "lattitude": "37.8740669",
      "longitude": "30.850889",
      "id": 434
    },
    {
      "name": "Gelendost, Isparta, Türkiye",
      "lattitude": "38.120831",
      "longitude": "31.014774",
      "id": 435
    },
    {
      "name": "Gönen, Isparta, Türkiye",
      "lattitude": "37.9588899",
      "longitude": "30.512323",
      "id": 436
    },
    {
      "name": "Isparta merkez, Isparta, Türkiye",
      "lattitude": "37.7626487",
      "longitude": "30.55370499999999",
      "id": 437
    },
    {
      "name": "Keçiborlu, Isparta, Türkiye",
      "lattitude": "37.943058",
      "longitude": "30.30136",
      "id": 438
    },
    {
      "name": "Senirkent, Isparta, Türkiye",
      "lattitude": "38.1079409",
      "longitude": "30.550178",
      "id": 439
    },
    {
      "name": "Sütçüler, Isparta, Türkiye",
      "lattitude": "37.495265",
      "longitude": "30.978651",
      "id": 440
    },
    {
      "name": "Şarkikaraağaç, Isparta, Türkiye",
      "lattitude": "38.079796",
      "longitude": "31.361791",
      "id": 441
    },
    {
      "name": "Uluborlu, Isparta, Türkiye",
      "lattitude": "38.0783289",
      "longitude": "30.450945",
      "id": 442
    },
    {
      "name": "Yalvaç, Isparta, Türkiye",
      "lattitude": "38.299473",
      "longitude": "31.175805",
      "id": 443
    },
    {
      "name": "Yenişarbademli, Isparta, Türkiye",
      "lattitude": "37.705944",
      "longitude": "31.383282",
      "id": 444
    },
    {
      "name": "Adalar, İstanbul, Türkiye",
      "lattitude": "40.874655",
      "longitude": "29.129564",
      "id": 445
    },
    {
      "name": "Arnavutköy, İstanbul, Türkiye",
      "lattitude": "41.186394",
      "longitude": "28.738889",
      "id": 446
    },
    {
      "name": "Ataşehir, İstanbul, Türkiye",
      "lattitude": "40.98333299999999",
      "longitude": "29.127778",
      "id": 447
    },
    {
      "name": "Avcılar, İstanbul, Türkiye",
      "lattitude": "41.01534789999999",
      "longitude": "28.7314618",
      "id": 448
    },
    {
      "name": "Bağcılar, İstanbul, Türkiye",
      "lattitude": "41.0456474",
      "longitude": "28.82472199999999",
      "id": 449
    },
    {
      "name": "Bahçelievler, İstanbul, Türkiye",
      "lattitude": "41.008545",
      "longitude": "28.82472199999999",
      "id": 450
    },
    {
      "name": "Bakırköy, İstanbul, Türkiye",
      "lattitude": "40.9831984",
      "longitude": "28.8536084",
      "id": 451
    },
    {
      "name": "Başakşehir, İstanbul, Türkiye",
      "lattitude": "41.083333",
      "longitude": "28.816667",
      "id": 452
    },
    {
      "name": "Bayrampaşa, İstanbul, Türkiye",
      "lattitude": "41.0481503",
      "longitude": "28.90045529999999",
      "id": 453
    },
    {
      "name": "Beşiktaş, İstanbul, Türkiye",
      "lattitude": "41.044",
      "longitude": "29.002",
      "id": 454
    },
    {
      "name": "Beykoz, İstanbul, Türkiye",
      "lattitude": "41.132719",
      "longitude": "29.10569",
      "id": 455
    },
    {
      "name": "Beylikdüzü, İstanbul, Türkiye",
      "lattitude": "40.9910381",
      "longitude": "28.6498144",
      "id": 456
    },
    {
      "name": "Beyoğlu, İstanbul, Türkiye",
      "lattitude": "41.036944",
      "longitude": "28.9775",
      "id": 457
    },
    {
      "name": "Büyükçekmece, İstanbul, Türkiye",
      "lattitude": "41.024474",
      "longitude": "28.585453",
      "id": 458
    },
    {
      "name": "Çatalca, İstanbul, Türkiye",
      "lattitude": "41.142259",
      "longitude": "28.457469",
      "id": 459
    },
    {
      "name": "Çekmeköy, İstanbul, Türkiye",
      "lattitude": "41.104235",
      "longitude": "29.3177272",
      "id": 460
    },
    {
      "name": "Esenler, İstanbul, Türkiye",
      "lattitude": "41.07941330000001",
      "longitude": "28.8538545",
      "id": 461
    },
    {
      "name": "Esenyurt, İstanbul, Türkiye",
      "lattitude": "41.0412899",
      "longitude": "28.694058",
      "id": 462
    },
    {
      "name": "Eyüp, İstanbul, Türkiye",
      "lattitude": "41.05500000000001",
      "longitude": "28.934444",
      "id": 463
    },
    {
      "name": "Fatih, İstanbul, Türkiye",
      "lattitude": "41.020169",
      "longitude": "28.933864",
      "id": 464
    },
    {
      "name": "Gaziosmanpaşa, İstanbul, Türkiye",
      "lattitude": "41.07594770000001",
      "longitude": "28.90045529999999",
      "id": 465
    },
    {
      "name": "Güngören, İstanbul, Türkiye",
      "lattitude": "41.020546",
      "longitude": "28.874244",
      "id": 466
    },
    {
      "name": "Kadıköy, İstanbul, Türkiye",
      "lattitude": "40.980141",
      "longitude": "29.08227",
      "id": 467
    },
    {
      "name": "Kağıthane, İstanbul, Türkiye",
      "lattitude": "41.0814028",
      "longitude": "28.9819731",
      "id": 468
    },
    {
      "name": "Kartal, İstanbul, Türkiye",
      "lattitude": "40.899651",
      "longitude": "29.193649",
      "id": 469
    },
    {
      "name": "Küçükçekmece, İstanbul, Türkiye",
      "lattitude": "41.0086579",
      "longitude": "28.775342",
      "id": 470
    },
    {
      "name": "Maltepe, İstanbul, Türkiye",
      "lattitude": "40.9498022",
      "longitude": "29.1739513",
      "id": 471
    },
    {
      "name": "Pendik, İstanbul, Türkiye",
      "lattitude": "40.879326",
      "longitude": "29.258135",
      "id": 472
    },
    {
      "name": "Sancaktepe, İstanbul, Türkiye",
      "lattitude": "41.0287028",
      "longitude": "29.2901829",
      "id": 473
    },
    {
      "name": "Sarıyer, İstanbul, Türkiye",
      "lattitude": "41.166328",
      "longitude": "29.04995",
      "id": 474
    },
    {
      "name": "Silivri, İstanbul, Türkiye",
      "lattitude": "41.073678",
      "longitude": "28.247868",
      "id": 475
    },
    {
      "name": "Sultanbeyli, İstanbul, Türkiye",
      "lattitude": "40.968423",
      "longitude": "29.262008",
      "id": 476
    },
    {
      "name": "Sultangazi, İstanbul, Türkiye",
      "lattitude": "41.1255794",
      "longitude": "28.8713314",
      "id": 477
    },
    {
      "name": "Şile, İstanbul, Türkiye",
      "lattitude": "41.174903",
      "longitude": "29.609588",
      "id": 478
    },
    {
      "name": "Şişli, İstanbul, Türkiye",
      "lattitude": "41.124309",
      "longitude": "29.0110762",
      "id": 479
    },
    {
      "name": "Tuzla, İstanbul, Türkiye",
      "lattitude": "40.8982305",
      "longitude": "29.3598782",
      "id": 480
    },
    {
      "name": "Ümraniye, İstanbul, Türkiye",
      "lattitude": "41.0182327",
      "longitude": "29.1274334",
      "id": 481
    },
    {
      "name": "Üsküdar, İstanbul, Türkiye",
      "lattitude": "41.032236",
      "longitude": "29.031938",
      "id": 482
    },
    {
      "name": "Zeytinburnu, İstanbul, Türkiye",
      "lattitude": "40.990635",
      "longitude": "28.89614",
      "id": 483
    },
    {
      "name": "Aliağa, İzmir, Türkiye",
      "lattitude": "38.799561",
      "longitude": "26.97074",
      "id": 484
    },
    {
      "name": "Balçova, İzmir, Türkiye",
      "lattitude": "38.3890827",
      "longitude": "27.0499859",
      "id": 485
    },
    {
      "name": "Bayındır, İzmir, Türkiye",
      "lattitude": "38.2174819",
      "longitude": "27.647949",
      "id": 486
    },
    {
      "name": "Bayraklı, İzmir, Türkiye",
      "lattitude": "38.4793887",
      "longitude": "27.1382404",
      "id": 487
    },
    {
      "name": "Bergama, İzmir, Türkiye",
      "lattitude": "39.121449",
      "longitude": "27.179913",
      "id": 488
    },
    {
      "name": "Beydağ, İzmir, Türkiye",
      "lattitude": "38.0847",
      "longitude": "28.2106",
      "id": 489
    },
    {
      "name": "Bornova, İzmir, Türkiye",
      "lattitude": "38.470982",
      "longitude": "27.21769",
      "id": 490
    },
    {
      "name": "Buca, İzmir, Türkiye",
      "lattitude": "38.3854789",
      "longitude": "27.174709",
      "id": 491
    },
    {
      "name": "Çeşme, İzmir, Türkiye",
      "lattitude": "38.324311",
      "longitude": "26.303215",
      "id": 492
    },
    {
      "name": "Çiğli, İzmir, Türkiye",
      "lattitude": "38.4940251",
      "longitude": "26.9616941",
      "id": 493
    },
    {
      "name": "Dikili, İzmir, Türkiye",
      "lattitude": "39.0749",
      "longitude": "26.889199",
      "id": 494
    },
    {
      "name": "Foça, İzmir, Türkiye",
      "lattitude": "38.670378",
      "longitude": "26.757918",
      "id": 495
    },
    {
      "name": "Gaziemir, İzmir, Türkiye",
      "lattitude": "38.32515",
      "longitude": "27.12252",
      "id": 496
    },
    {
      "name": "Güzelbahçe, İzmir, Türkiye",
      "lattitude": "38.334926",
      "longitude": "26.899592",
      "id": 497
    },
    {
      "name": "Karabağlar, İzmir, Türkiye",
      "lattitude": "38.3465505",
      "longitude": "27.0441009",
      "id": 498
    },
    {
      "name": "Karaburun, İzmir, Türkiye",
      "lattitude": "38.6382509",
      "longitude": "26.512738",
      "id": 499
    },
    {
      "name": "Karşıyaka, İzmir, Türkiye",
      "lattitude": "38.5183996",
      "longitude": "27.1382404",
      "id": 500
    },
    {
      "name": "Kemalpaşa, İzmir, Türkiye",
      "lattitude": "38.42749999999999",
      "longitude": "27.4188",
      "id": 501
    },
    {
      "name": "Kınık, İzmir, Türkiye",
      "lattitude": "39.0859",
      "longitude": "27.3818",
      "id": 502
    },
    {
      "name": "Kiraz, İzmir, Türkiye",
      "lattitude": "38.2302",
      "longitude": "28.2064",
      "id": 503
    },
    {
      "name": "Konak, İzmir, Türkiye",
      "lattitude": "38.4144802",
      "longitude": "27.1441227",
      "id": 504
    },
    {
      "name": "Menderes, İzmir, Türkiye",
      "lattitude": "38.251744",
      "longitude": "27.132668",
      "id": 505
    },
    {
      "name": "Menemen, İzmir, Türkiye",
      "lattitude": "38.610366",
      "longitude": "27.069658",
      "id": 506
    },
    {
      "name": "Narlıdere, İzmir, Türkiye",
      "lattitude": "38.3777936",
      "longitude": "26.9970153",
      "id": 507
    },
    {
      "name": "Ödemiş, İzmir, Türkiye",
      "lattitude": "38.2190057",
      "longitude": "27.9717606",
      "id": 508
    },
    {
      "name": "Seferihisar, İzmir, Türkiye",
      "lattitude": "38.19515",
      "longitude": "26.834402",
      "id": 509
    },
    {
      "name": "Selçuk, İzmir, Türkiye",
      "lattitude": "37.950845",
      "longitude": "27.369954",
      "id": 510
    },
    {
      "name": "Tire, İzmir, Türkiye",
      "lattitude": "38.089478",
      "longitude": "27.731838",
      "id": 511
    },
    {
      "name": "Torbalı, İzmir, Türkiye",
      "lattitude": "38.155731",
      "longitude": "27.364494",
      "id": 512
    },
    {
      "name": "Urla, İzmir, Türkiye",
      "lattitude": "38.324972",
      "longitude": "26.76681",
      "id": 513
    },
    {
      "name": "Afşin, Kahramanmaraş, Türkiye",
      "lattitude": "38.243802",
      "longitude": "36.914722",
      "id": 514
    },
    {
      "name": "Andırın, Kahramanmaraş, Türkiye",
      "lattitude": "37.57571799999999",
      "longitude": "36.349767",
      "id": 515
    },
    {
      "name": "Çağlayancerit, Kahramanmaraş, Türkiye",
      "lattitude": "37.750164",
      "longitude": "37.293208",
      "id": 516
    },
    {
      "name": "Dulkadiroğlu, Kahramanmaraş, Türkiye",
      "lattitude": "37.5785696",
      "longitude": "36.949405",
      "id": 517
    },
    {
      "name": "Ekinözü, Kahramanmaraş, Türkiye",
      "lattitude": "38.059322",
      "longitude": "37.188692",
      "id": 518
    },
    {
      "name": "Elbistan, Kahramanmaraş, Türkiye",
      "lattitude": "38.206537",
      "longitude": "37.193076",
      "id": 519
    },
    {
      "name": "Göksun, Kahramanmaraş, Türkiye",
      "lattitude": "38.020382",
      "longitude": "36.494869",
      "id": 520
    },
    {
      "name": "Nurhak, Kahramanmaraş, Türkiye",
      "lattitude": "37.9656329",
      "longitude": "37.44744499999999",
      "id": 521
    },
    {
      "name": "Onikişubat, Kahramanmaraş, Türkiye",
      "lattitude": "37.5752755",
      "longitude": "36.9228223",
      "id": 522
    },
    {
      "name": "Pazarcık, Kahramanmaraş, Türkiye",
      "lattitude": "37.489462",
      "longitude": "37.293574",
      "id": 523
    },
    {
      "name": "Türkoğlu, Kahramanmaraş, Türkiye",
      "lattitude": "37.384751",
      "longitude": "36.846238",
      "id": 524
    },
    {
      "name": "Eflani, Karabük, Türkiye",
      "lattitude": "41.42313",
      "longitude": "32.958663",
      "id": 525
    },
    {
      "name": "Eskipazar, Karabük, Türkiye",
      "lattitude": "40.9445",
      "longitude": "32.5322",
      "id": 526
    },
    {
      "name": "Karabük merkez, Karabük, Türkiye",
      "lattitude": "41.19562",
      "longitude": "32.622654",
      "id": 527
    },
    {
      "name": "Ovacık, Karabük, Türkiye",
      "lattitude": "41.073276",
      "longitude": "32.917514",
      "id": 528
    },
    {
      "name": "Safranbolu, Karabük, Türkiye",
      "lattitude": "41.249306",
      "longitude": "32.683128",
      "id": 529
    },
    {
      "name": "Yenice, Karabük, Türkiye",
      "lattitude": "41.2002",
      "longitude": "32.32920000000001",
      "id": 530
    },
    {
      "name": "Ayrancı, Karaman, Türkiye",
      "lattitude": "37.361767",
      "longitude": "33.689309",
      "id": 531
    },
    {
      "name": "Başyayla, Karaman, Türkiye",
      "lattitude": "36.7537049",
      "longitude": "32.677001",
      "id": 532
    },
    {
      "name": "Ermenek, Karaman, Türkiye",
      "lattitude": "36.640261",
      "longitude": "32.892038",
      "id": 533
    },
    {
      "name": "Karaman merkez, Karaman, Türkiye",
      "lattitude": "37.181009",
      "longitude": "33.22224300000001",
      "id": 534
    },
    {
      "name": "Kazımkarabekir, Karaman, Türkiye",
      "lattitude": "37.227317",
      "longitude": "32.958978",
      "id": 535
    },
    {
      "name": "Sarıveliler, Karaman, Türkiye",
      "lattitude": "36.698611",
      "longitude": "32.617766",
      "id": 536
    },
    {
      "name": "Akyaka, Kars, Türkiye",
      "lattitude": "40.74256099999999",
      "longitude": "43.627378",
      "id": 537
    },
    {
      "name": "Arpaçay, Kars, Türkiye",
      "lattitude": "40.846747",
      "longitude": "43.332095",
      "id": 538
    },
    {
      "name": "Digor, Kars, Türkiye",
      "lattitude": "40.3750829",
      "longitude": "43.41417800000001",
      "id": 539
    },
    {
      "name": "Kağızman, Kars, Türkiye",
      "lattitude": "40.140648",
      "longitude": "43.119118",
      "id": 540
    },
    {
      "name": "Kars merkez, Kars, Türkiye",
      "lattitude": "40.6013378",
      "longitude": "43.0974525",
      "id": 541
    },
    {
      "name": "Sarıkamış, Kars, Türkiye",
      "lattitude": "40.33340099999999",
      "longitude": "42.59047899999999",
      "id": 542
    },
    {
      "name": "Selim, Kars, Türkiye",
      "lattitude": "40.464118",
      "longitude": "42.790625",
      "id": 543
    },
    {
      "name": "Susuz, Kars, Türkiye",
      "lattitude": "40.7796329",
      "longitude": "43.129804",
      "id": 544
    },
    {
      "name": "Abana, Kastamonu, Türkiye",
      "lattitude": "41.97875699999999",
      "longitude": "34.014747",
      "id": 545
    },
    {
      "name": "Ağlı, Kastamonu, Türkiye",
      "lattitude": "41.68699",
      "longitude": "33.553815",
      "id": 546
    },
    {
      "name": "Araç, Kastamonu, Türkiye",
      "lattitude": "41.2426419",
      "longitude": "33.328507",
      "id": 547
    },
    {
      "name": "Azdavay, Kastamonu, Türkiye",
      "lattitude": "41.642533",
      "longitude": "33.305719",
      "id": 548
    },
    {
      "name": "Bozkurt, Kastamonu, Türkiye",
      "lattitude": "41.957341",
      "longitude": "34.01168",
      "id": 549
    },
    {
      "name": "Cide, Kastamonu, Türkiye",
      "lattitude": "41.892221",
      "longitude": "33.003676",
      "id": 550
    },
    {
      "name": "Çatalzeytin, Kastamonu, Türkiye",
      "lattitude": "41.951178",
      "longitude": "34.226706",
      "id": 551
    },
    {
      "name": "Daday, Kastamonu, Türkiye",
      "lattitude": "41.47762600000001",
      "longitude": "33.469228",
      "id": 552
    },
    {
      "name": "Devrekani, Kastamonu, Türkiye",
      "lattitude": "41.603891",
      "longitude": "33.835214",
      "id": 553
    },
    {
      "name": "Doğanyurt, Kastamonu, Türkiye",
      "lattitude": "42.004299",
      "longitude": "33.460477",
      "id": 554
    },
    {
      "name": "Hanönü, Kastamonu, Türkiye",
      "lattitude": "41.625403",
      "longitude": "34.4632689",
      "id": 555
    },
    {
      "name": "İhsangazi, Kastamonu, Türkiye",
      "lattitude": "41.203849",
      "longitude": "33.554724",
      "id": 556
    },
    {
      "name": "İnebolu, Kastamonu, Türkiye",
      "lattitude": "41.97725",
      "longitude": "33.759358",
      "id": 557
    },
    {
      "name": "Kastamonu merkez, Kastamonu, Türkiye",
      "lattitude": "41.376625",
      "longitude": "33.776497",
      "id": 558
    },
    {
      "name": "Küre, Kastamonu, Türkiye",
      "lattitude": "41.805978",
      "longitude": "33.7102689",
      "id": 559
    },
    {
      "name": "Pınarbaşı, Kastamonu, Türkiye",
      "lattitude": "41.603836",
      "longitude": "33.110766",
      "id": 560
    },
    {
      "name": "Seydiler, Kastamonu, Türkiye",
      "lattitude": "41.619953",
      "longitude": "33.718521",
      "id": 561
    },
    {
      "name": "Şenpazar, Kastamonu, Türkiye",
      "lattitude": "41.809741",
      "longitude": "33.231404",
      "id": 562
    },
    {
      "name": "Taşköprü, Kastamonu, Türkiye",
      "lattitude": "41.50994499999999",
      "longitude": "34.210284",
      "id": 563
    },
    {
      "name": "Tosya, Kastamonu, Türkiye",
      "lattitude": "41.0174189",
      "longitude": "34.0374679",
      "id": 564
    },
    {
      "name": "Akkışla, Kayseri, Türkiye",
      "lattitude": "39.00236",
      "longitude": "36.173545",
      "id": 565
    },
    {
      "name": "Bünyan, Kayseri, Türkiye",
      "lattitude": "38.8550619",
      "longitude": "35.852098",
      "id": 566
    },
    {
      "name": "Develi, Kayseri, Türkiye",
      "lattitude": "38.388652",
      "longitude": "35.492816",
      "id": 567
    },
    {
      "name": "Felahiye, Kayseri, Türkiye",
      "lattitude": "39.090096",
      "longitude": "35.567341",
      "id": 568
    },
    {
      "name": "Hacılar, Kayseri, Türkiye",
      "lattitude": "38.6459819",
      "longitude": "35.452556",
      "id": 569
    },
    {
      "name": "İncesu, Kayseri, Türkiye",
      "lattitude": "38.623298",
      "longitude": "35.18386",
      "id": 570
    },
    {
      "name": "Kocasinan, Kayseri, Türkiye",
      "lattitude": "38.720489",
      "longitude": "35.48259700000001",
      "id": 571
    },
    {
      "name": "Melikgazi, Kayseri, Türkiye",
      "lattitude": "38.720489",
      "longitude": "35.48259700000001",
      "id": 572
    },
    {
      "name": "Özvatan, Kayseri, Türkiye",
      "lattitude": "39.106381",
      "longitude": "35.6991129",
      "id": 573
    },
    {
      "name": "Pınarbaşı, Kayseri, Türkiye",
      "lattitude": "38.7205129",
      "longitude": "36.39502",
      "id": 574
    },
    {
      "name": "Sarıoğlan, Kayseri, Türkiye",
      "lattitude": "39.077818",
      "longitude": "35.966957",
      "id": 575
    },
    {
      "name": "Sarız, Kayseri, Türkiye",
      "lattitude": "38.480572",
      "longitude": "36.497798",
      "id": 576
    },
    {
      "name": "Talas, Kayseri, Türkiye",
      "lattitude": "38.687501",
      "longitude": "35.555568",
      "id": 577
    },
    {
      "name": "Tomarza, Kayseri, Türkiye",
      "lattitude": "38.447925",
      "longitude": "35.799104",
      "id": 578
    },
    {
      "name": "Yahyalı, Kayseri, Türkiye",
      "lattitude": "38.099171",
      "longitude": "35.359159",
      "id": 579
    },
    {
      "name": "Yeşilhisar, Kayseri, Türkiye",
      "lattitude": "38.35616",
      "longitude": "35.085944",
      "id": 580
    },
    {
      "name": "Bahşili, Kırıkkale, Türkiye",
      "lattitude": "39.813252",
      "longitude": "33.471804",
      "id": 581
    },
    {
      "name": "Balışeyh, Kırıkkale, Türkiye",
      "lattitude": "39.909775",
      "longitude": "33.718227",
      "id": 582
    },
    {
      "name": "Çelebi, Kırıkkale, Türkiye",
      "lattitude": "39.464667",
      "longitude": "33.525622",
      "id": 583
    },
    {
      "name": "Delice, Kırıkkale, Türkiye",
      "lattitude": "39.943687",
      "longitude": "34.032616",
      "id": 584
    },
    {
      "name": "Karakeçili, Kırıkkale, Türkiye",
      "lattitude": "39.5931179",
      "longitude": "33.3781729",
      "id": 585
    },
    {
      "name": "Keskin, Kırıkkale, Türkiye",
      "lattitude": "39.6718339",
      "longitude": "33.610804",
      "id": 586
    },
    {
      "name": "Kırıkkale merkez, Kırıkkale, Türkiye",
      "lattitude": "39.8397835",
      "longitude": "33.5088782",
      "id": 587
    },
    {
      "name": "Sulakyurt, Kırıkkale, Türkiye",
      "lattitude": "40.15844999999999",
      "longitude": "33.718127",
      "id": 588
    },
    {
      "name": "Yahşihan, Kırıkkale, Türkiye",
      "lattitude": "39.848901",
      "longitude": "33.452353",
      "id": 589
    },
    {
      "name": "Babaeski, Kırklareli, Türkiye",
      "lattitude": "41.4313239",
      "longitude": "27.091798",
      "id": 590
    },
    {
      "name": "Demirköy, Kırklareli, Türkiye",
      "lattitude": "41.822618",
      "longitude": "27.762756",
      "id": 591
    },
    {
      "name": "Kırklareli merkez, Kırklareli, Türkiye",
      "lattitude": "41.735472",
      "longitude": "27.224369",
      "id": 592
    },
    {
      "name": "Kofçaz, Kırklareli, Türkiye",
      "lattitude": "41.94280000000001",
      "longitude": "27.157148",
      "id": 593
    },
    {
      "name": "Lüleburgaz, Kırklareli, Türkiye",
      "lattitude": "41.402742",
      "longitude": "27.365646",
      "id": 594
    },
    {
      "name": "Pehlivanköy, Kırklareli, Türkiye",
      "lattitude": "41.347111",
      "longitude": "26.924354",
      "id": 595
    },
    {
      "name": "Pınarhisar, Kırklareli, Türkiye",
      "lattitude": "41.624271",
      "longitude": "27.517888",
      "id": 596
    },
    {
      "name": "Vize, Kırklareli, Türkiye",
      "lattitude": "41.572976",
      "longitude": "27.767148",
      "id": 597
    },
    {
      "name": "Akçakent, Kırşehir, Türkiye",
      "lattitude": "39.624981",
      "longitude": "34.096228",
      "id": 598
    },
    {
      "name": "Akpınar, Kırşehir, Türkiye",
      "lattitude": "39.4519949",
      "longitude": "33.960219",
      "id": 599
    },
    {
      "name": "Boztepe, Kırşehir, Türkiye",
      "lattitude": "39.270216",
      "longitude": "34.265841",
      "id": 600
    },
    {
      "name": "Çiçekdağı, Kırşehir, Türkiye",
      "lattitude": "39.60167",
      "longitude": "34.418062",
      "id": 601
    },
    {
      "name": "Kaman, Kırşehir, Türkiye",
      "lattitude": "39.358937",
      "longitude": "33.723375",
      "id": 602
    },
    {
      "name": "Kırşehir merkez, Kırşehir, Türkiye",
      "lattitude": "39.146078",
      "longitude": "34.1594989",
      "id": 603
    },
    {
      "name": "Mucur, Kırşehir, Türkiye",
      "lattitude": "39.063535",
      "longitude": "34.373854",
      "id": 604
    },
    {
      "name": "Elbeyli, Kilis, Türkiye",
      "lattitude": "36.675004",
      "longitude": "37.466927",
      "id": 605
    },
    {
      "name": "Kilis merkez, Kilis, Türkiye",
      "lattitude": "36.716477",
      "longitude": "37.114661",
      "id": 606
    },
    {
      "name": "Musabeyli, Kilis, Türkiye",
      "lattitude": "36.885897",
      "longitude": "36.915923",
      "id": 607
    },
    {
      "name": "Polateli, Kilis, Türkiye",
      "lattitude": "36.842174",
      "longitude": "37.143552",
      "id": 608
    },
    {
      "name": "Başiskele, Kocaeli, Türkiye",
      "lattitude": "40.6298368",
      "longitude": "29.950926",
      "id": 609
    },
    {
      "name": "Çayırova, Kocaeli, Türkiye",
      "lattitude": "40.824215",
      "longitude": "29.372234",
      "id": 610
    },
    {
      "name": "Darıca, Kocaeli, Türkiye",
      "lattitude": "40.7738633",
      "longitude": "29.4002978",
      "id": 611
    },
    {
      "name": "Derince, Kocaeli, Türkiye",
      "lattitude": "40.756189",
      "longitude": "29.830918",
      "id": 612
    },
    {
      "name": "Dilovası, Kocaeli, Türkiye",
      "lattitude": "40.787622",
      "longitude": "29.544158",
      "id": 613
    },
    {
      "name": "Gebze, Kocaeli, Türkiye",
      "lattitude": "40.8025157",
      "longitude": "29.4397941",
      "id": 614
    },
    {
      "name": "Gölcük, Kocaeli, Türkiye",
      "lattitude": "40.7167517",
      "longitude": "29.8194875",
      "id": 615
    },
    {
      "name": "İzmit, Kocaeli, Türkiye",
      "lattitude": "40.770276",
      "longitude": "29.987535",
      "id": 616
    },
    {
      "name": "Kandıra, Kocaeli, Türkiye",
      "lattitude": "41.070363",
      "longitude": "30.15239399999999",
      "id": 617
    },
    {
      "name": "Karamürsel, Kocaeli, Türkiye",
      "lattitude": "40.691274",
      "longitude": "29.616418",
      "id": 618
    },
    {
      "name": "Kartepe, Kocaeli, Türkiye",
      "lattitude": "40.753369",
      "longitude": "30.023216",
      "id": 619
    },
    {
      "name": "Körfez, Kocaeli, Türkiye",
      "lattitude": "40.776382",
      "longitude": "29.737718",
      "id": 620
    },
    {
      "name": "Ahırlı, Konya, Türkiye",
      "lattitude": "37.239077",
      "longitude": "32.120879",
      "id": 621
    },
    {
      "name": "Akören, Konya, Türkiye",
      "lattitude": "37.452598",
      "longitude": "32.371139",
      "id": 622
    },
    {
      "name": "Akşehir, Konya, Türkiye",
      "lattitude": "38.360258",
      "longitude": "31.417991",
      "id": 623
    },
    {
      "name": "Altınekin, Konya, Türkiye",
      "lattitude": "38.308274",
      "longitude": "32.868888",
      "id": 624
    },
    {
      "name": "Beyşehir, Konya, Türkiye",
      "lattitude": "37.679796",
      "longitude": "31.724299",
      "id": 625
    },
    {
      "name": "Bozkır, Konya, Türkiye",
      "lattitude": "37.18891199999999",
      "longitude": "32.245393",
      "id": 626
    },
    {
      "name": "Cihanbeyli, Konya, Türkiye",
      "lattitude": "38.656883",
      "longitude": "32.923303",
      "id": 627
    },
    {
      "name": "Çeltik, Konya, Türkiye",
      "lattitude": "39.023429",
      "longitude": "31.790552",
      "id": 628
    },
    {
      "name": "Çumra, Konya, Türkiye",
      "lattitude": "37.573899",
      "longitude": "32.781038",
      "id": 629
    },
    {
      "name": "Derbent, Konya, Türkiye",
      "lattitude": "38.013432",
      "longitude": "32.015323",
      "id": 630
    },
    {
      "name": "Derebucak, Konya, Türkiye",
      "lattitude": "37.39108",
      "longitude": "31.510087",
      "id": 631
    },
    {
      "name": "Doğanhisar, Konya, Türkiye",
      "lattitude": "38.145955",
      "longitude": "31.67675",
      "id": 632
    },
    {
      "name": "Emirgazi, Konya, Türkiye",
      "lattitude": "37.904083",
      "longitude": "33.83614500000001",
      "id": 633
    },
    {
      "name": "Ereğli, Konya, Türkiye",
      "lattitude": "37.512316",
      "longitude": "34.048806",
      "id": 634
    },
    {
      "name": "Güneysınır, Konya, Türkiye",
      "lattitude": "37.267923",
      "longitude": "32.72742",
      "id": 635
    },
    {
      "name": "Hadim, Konya, Türkiye",
      "lattitude": "36.986063",
      "longitude": "32.455875",
      "id": 636
    },
    {
      "name": "Halkapınar, Konya, Türkiye",
      "lattitude": "37.4336429",
      "longitude": "34.18685500000001",
      "id": 637
    },
    {
      "name": "Hüyük, Konya, Türkiye",
      "lattitude": "37.951279",
      "longitude": "31.599333",
      "id": 638
    },
    {
      "name": "Ilgın, Konya, Türkiye",
      "lattitude": "38.2817239",
      "longitude": "31.91395",
      "id": 639
    },
    {
      "name": "Kadınhanı, Konya, Türkiye",
      "lattitude": "38.240871",
      "longitude": "32.207868",
      "id": 640
    },
    {
      "name": "Karapınar, Konya, Türkiye",
      "lattitude": "37.71532",
      "longitude": "33.54657",
      "id": 641
    },
    {
      "name": "Karatay, Konya, Türkiye",
      "lattitude": "37.8746429",
      "longitude": "32.4931554",
      "id": 642
    },
    {
      "name": "Kulu, Konya, Türkiye",
      "lattitude": "39.090245",
      "longitude": "33.08052800000001",
      "id": 643
    },
    {
      "name": "Meram, Konya, Türkiye",
      "lattitude": "37.8746429",
      "longitude": "32.4931554",
      "id": 644
    },
    {
      "name": "Sarayönü, Konya, Türkiye",
      "lattitude": "38.2646609",
      "longitude": "32.407075",
      "id": 645
    },
    {
      "name": "Selçuklu, Konya, Türkiye",
      "lattitude": "37.8746429",
      "longitude": "32.4931554",
      "id": 646
    },
    {
      "name": "Seydişehir, Konya, Türkiye",
      "lattitude": "37.41926",
      "longitude": "31.848216",
      "id": 647
    },
    {
      "name": "Taşkent, Konya, Türkiye",
      "lattitude": "36.9236829",
      "longitude": "32.493227",
      "id": 648
    },
    {
      "name": "Tuzlukçu, Konya, Türkiye",
      "lattitude": "38.4743769",
      "longitude": "31.629483",
      "id": 649
    },
    {
      "name": "Yalıhüyük, Konya, Türkiye",
      "lattitude": "37.300534",
      "longitude": "32.085453",
      "id": 650
    },
    {
      "name": "Yunak, Konya, Türkiye",
      "lattitude": "38.813456",
      "longitude": "31.735652",
      "id": 651
    },
    {
      "name": "Altıntaş, Kütahya, Türkiye",
      "lattitude": "39.057997",
      "longitude": "30.108556",
      "id": 652
    },
    {
      "name": "Aslanapa, Kütahya, Türkiye",
      "lattitude": "39.214902",
      "longitude": "29.870345",
      "id": 653
    },
    {
      "name": "Çavdarhisar, Kütahya, Türkiye",
      "lattitude": "39.196872",
      "longitude": "29.617246",
      "id": 654
    },
    {
      "name": "Domaniç, Kütahya, Türkiye",
      "lattitude": "39.800999",
      "longitude": "29.612731",
      "id": 655
    },
    {
      "name": "Dumlupınar, Kütahya, Türkiye",
      "lattitude": "38.8552",
      "longitude": "29.9762",
      "id": 656
    },
    {
      "name": "Emet, Kütahya, Türkiye",
      "lattitude": "39.344413",
      "longitude": "29.257899",
      "id": 657
    },
    {
      "name": "Gediz, Kütahya, Türkiye",
      "lattitude": "38.990736",
      "longitude": "29.395705",
      "id": 658
    },
    {
      "name": "Hisarcık, Kütahya, Türkiye",
      "lattitude": "39.246528",
      "longitude": "29.235896",
      "id": 659
    },
    {
      "name": "Kütahya merkez, Kütahya, Türkiye",
      "lattitude": "39.4199547",
      "longitude": "29.985732",
      "id": 660
    },
    {
      "name": "Pazarlar, Kütahya, Türkiye",
      "lattitude": "38.9951999",
      "longitude": "29.1239",
      "id": 661
    },
    {
      "name": "Simav, Kütahya, Türkiye",
      "lattitude": "39.0896",
      "longitude": "28.9787",
      "id": 662
    },
    {
      "name": "Şaphane, Kütahya, Türkiye",
      "lattitude": "39.02491",
      "longitude": "29.220065",
      "id": 663
    },
    {
      "name": "Tavşanlı, Kütahya, Türkiye",
      "lattitude": "39.547",
      "longitude": "29.4914",
      "id": 664
    },
    {
      "name": "Akçadağ, Malatya, Türkiye",
      "lattitude": "38.3883533",
      "longitude": "37.7960607",
      "id": 665
    },
    {
      "name": "Arapgir, Malatya, Türkiye",
      "lattitude": "39.0428349",
      "longitude": "38.488364",
      "id": 666
    },
    {
      "name": "Arguvan, Malatya, Türkiye",
      "lattitude": "38.782693",
      "longitude": "38.264795",
      "id": 667
    },
    {
      "name": "Battalgazi, Malatya, Türkiye",
      "lattitude": "38.42502",
      "longitude": "38.3654439",
      "id": 668
    },
    {
      "name": "Darende, Malatya, Türkiye",
      "lattitude": "38.556664",
      "longitude": "37.490605",
      "id": 669
    },
    {
      "name": "Doğanşehir, Malatya, Türkiye",
      "lattitude": "38.093415",
      "longitude": "37.878116",
      "id": 670
    },
    {
      "name": "Doğanyol, Malatya, Türkiye",
      "lattitude": "38.310299",
      "longitude": "39.037749",
      "id": 671
    },
    {
      "name": "Hekimhan, Malatya, Türkiye",
      "lattitude": "38.81652500000001",
      "longitude": "37.930779",
      "id": 672
    },
    {
      "name": "Kale, Malatya, Türkiye",
      "lattitude": "38.423744",
      "longitude": "38.773124",
      "id": 673
    },
    {
      "name": "Kuluncak, Malatya, Türkiye",
      "lattitude": "38.8857",
      "longitude": "37.6703",
      "id": 674
    },
    {
      "name": "Pütürge, Malatya, Türkiye",
      "lattitude": "38.195926",
      "longitude": "38.868925",
      "id": 675
    },
    {
      "name": "Yazıhan, Malatya, Türkiye",
      "lattitude": "38.59576",
      "longitude": "38.180075",
      "id": 676
    },
    {
      "name": "Yeşilyurt, Malatya, Türkiye",
      "lattitude": "38.295459",
      "longitude": "38.247475",
      "id": 677
    },
    {
      "name": "Ahmetli, Manisa, Türkiye",
      "lattitude": "38.516381",
      "longitude": "27.937964",
      "id": 678
    },
    {
      "name": "Akhisar, Manisa, Türkiye",
      "lattitude": "38.91766399999999",
      "longitude": "27.83662",
      "id": 679
    },
    {
      "name": "Alaşehir, Manisa, Türkiye",
      "lattitude": "38.354458",
      "longitude": "28.516541",
      "id": 680
    },
    {
      "name": "Demirci, Manisa, Türkiye",
      "lattitude": "39.047336",
      "longitude": "28.658544",
      "id": 681
    },
    {
      "name": "Gölmarmara, Manisa, Türkiye",
      "lattitude": "38.713913",
      "longitude": "27.918426",
      "id": 682
    },
    {
      "name": "Gördes, Manisa, Türkiye",
      "lattitude": "38.933029",
      "longitude": "28.288668",
      "id": 683
    },
    {
      "name": "Kırkağaç, Manisa, Türkiye",
      "lattitude": "39.1197897",
      "longitude": "27.784246",
      "id": 684
    },
    {
      "name": "Köprübaşı, Manisa, Türkiye",
      "lattitude": "38.748221",
      "longitude": "28.404289",
      "id": 685
    },
    {
      "name": "Kula, Manisa, Türkiye",
      "lattitude": "38.543234",
      "longitude": "28.644585",
      "id": 686
    },
    {
      "name": "Salihli, Manisa, Türkiye",
      "lattitude": "38.487074",
      "longitude": "28.138052",
      "id": 687
    },
    {
      "name": "Sarıgöl, Manisa, Türkiye",
      "lattitude": "38.238351",
      "longitude": "28.696434",
      "id": 688
    },
    {
      "name": "Saruhanlı, Manisa, Türkiye",
      "lattitude": "38.734982",
      "longitude": "27.569818",
      "id": 689
    },
    {
      "name": "Selendi, Manisa, Türkiye",
      "lattitude": "38.743988",
      "longitude": "28.867367",
      "id": 690
    },
    {
      "name": "Soma, Manisa, Türkiye",
      "lattitude": "39.185113",
      "longitude": "27.608792",
      "id": 691
    },
    {
      "name": "Şehzadeler, Manisa, Türkiye",
      "lattitude": "38.6140337",
      "longitude": "27.4295624",
      "id": 692
    },
    {
      "name": "Turgutlu, Manisa, Türkiye",
      "lattitude": "38.500161",
      "longitude": "27.70841",
      "id": 693
    },
    {
      "name": "Yunusemre, Manisa, Türkiye",
      "lattitude": "38.6262479",
      "longitude": "27.3878497",
      "id": 694
    },
    {
      "name": "Artuklu, Mardin, Türkiye",
      "lattitude": "37.3271054",
      "longitude": "40.7191664",
      "id": 695
    },
    {
      "name": "Dargeçit, Mardin, Türkiye",
      "lattitude": "37.5461839",
      "longitude": "41.720381",
      "id": 696
    },
    {
      "name": "Derik, Mardin, Türkiye",
      "lattitude": "37.364657",
      "longitude": "40.267937",
      "id": 697
    },
    {
      "name": "Kızıltepe, Mardin, Türkiye",
      "lattitude": "37.1931114",
      "longitude": "40.5870361",
      "id": 698
    },
    {
      "name": "Mazıdağı, Mardin, Türkiye",
      "lattitude": "37.477368",
      "longitude": "40.486736",
      "id": 699
    },
    {
      "name": "Midyat, Mardin, Türkiye",
      "lattitude": "37.41514799999999",
      "longitude": "41.37343",
      "id": 700
    },
    {
      "name": "Nusaybin, Mardin, Türkiye",
      "lattitude": "37.0696439",
      "longitude": "41.213997",
      "id": 701
    },
    {
      "name": "Ömerli, Mardin, Türkiye",
      "lattitude": "37.40311",
      "longitude": "40.954825",
      "id": 702
    },
    {
      "name": "Savur, Mardin, Türkiye",
      "lattitude": "37.533928",
      "longitude": "40.887089",
      "id": 703
    },
    {
      "name": "Yeşilli, Mardin, Türkiye",
      "lattitude": "37.339608",
      "longitude": "40.823019",
      "id": 704
    },
    {
      "name": "Akdeniz, Mersin, Türkiye",
      "lattitude": "36.8121041",
      "longitude": "34.6414811",
      "id": 705
    },
    {
      "name": "Anamur, Mersin, Türkiye",
      "lattitude": "36.077286",
      "longitude": "32.832889",
      "id": 706
    },
    {
      "name": "Aydıncık, Mersin, Türkiye",
      "lattitude": "36.1431929",
      "longitude": "33.321003",
      "id": 707
    },
    {
      "name": "Bozyazı, Mersin, Türkiye",
      "lattitude": "36.10543",
      "longitude": "32.973901",
      "id": 708
    },
    {
      "name": "Çamlıyayla, Mersin, Türkiye",
      "lattitude": "37.16653",
      "longitude": "34.5935879",
      "id": 709
    },
    {
      "name": "Erdemli, Mersin, Türkiye",
      "lattitude": "36.6058189",
      "longitude": "34.310167",
      "id": 710
    },
    {
      "name": "Gülnar, Mersin, Türkiye",
      "lattitude": "36.338734",
      "longitude": "33.399124",
      "id": 711
    },
    {
      "name": "Mezitli, Mersin, Türkiye",
      "lattitude": "36.8573692",
      "longitude": "34.3976356",
      "id": 712
    },
    {
      "name": "Mut, Mersin, Türkiye",
      "lattitude": "36.645381",
      "longitude": "33.4371",
      "id": 713
    },
    {
      "name": "Silifke, Mersin, Türkiye",
      "lattitude": "36.37633",
      "longitude": "33.925311",
      "id": 714
    },
    {
      "name": "Tarsus, Mersin, Türkiye",
      "lattitude": "36.9165612",
      "longitude": "34.8952102",
      "id": 715
    },
    {
      "name": "Toroslar, Mersin, Türkiye",
      "lattitude": "36.8121041",
      "longitude": "34.6414811",
      "id": 716
    },
    {
      "name": "Yenişehir, Mersin, Türkiye",
      "lattitude": "36.8121041",
      "longitude": "34.6414811",
      "id": 717
    },
    {
      "name": "Bodrum, Muğla, Türkiye",
      "lattitude": "37.034407",
      "longitude": "27.43054",
      "id": 718
    },
    {
      "name": "Dalaman, Muğla, Türkiye",
      "lattitude": "36.76662",
      "longitude": "28.799991",
      "id": 719
    },
    {
      "name": "Datça, Muğla, Türkiye",
      "lattitude": "36.726217",
      "longitude": "27.685844",
      "id": 720
    },
    {
      "name": "Fethiye, Muğla, Türkiye",
      "lattitude": "36.659246",
      "longitude": "29.126347",
      "id": 721
    },
    {
      "name": "Kavaklıdere, Muğla, Türkiye",
      "lattitude": "37.445382",
      "longitude": "28.366123",
      "id": 722
    },
    {
      "name": "Köyceğiz, Muğla, Türkiye",
      "lattitude": "36.966034",
      "longitude": "28.688593",
      "id": 723
    },
    {
      "name": "Marmaris, Muğla, Türkiye",
      "lattitude": "36.854936",
      "longitude": "28.270878",
      "id": 724
    },
    {
      "name": "Menteşe, Muğla, Türkiye",
      "lattitude": "37.4213499",
      "longitude": "28.432157",
      "id": 725
    },
    {
      "name": "Milas, Muğla, Türkiye",
      "lattitude": "37.31163799999999",
      "longitude": "27.780795",
      "id": 726
    },